geo_id,departamento,municipio,altitud,latitud,longitud
91405,amazonas,la-chorrera,146.667,-0.996,-73.252
91407,amazonas,la-pedrera,104.8,-1.381,-69.806
91001,amazonas,leticia,92.25,-4.203,-69.945
91460,amazonas,mirití-paraná-campoamor,115.0,-1.365,-70.715
91530,amazonas,puerto-alegría,135.0,-0.956,-74.025
91536,amazonas,puerto-arica,115.0,-2.147,-71.752
91540,amazonas,puerto-nariño,158.0,-3.78,-70.363
05002,antioquia,abejorral,2450.0,5.786,-75.43
05004,antioquia,abriaquí,1920.0,6.642,-76.075
05021,antioquia,alejandría,1500.5,6.386,-75.098
05031,antioquia,amalfi,1285.0,6.891,-75.038
05034,antioquia,andes,1219.333,5.645,-75.885
05038,antioquia,angostura,1902.5,6.876,-75.357
05040,antioquia,anorí,768.222,7.226,-75.096
05044,antioquia,anzá,488.75,6.355,-75.848
05045,antioquia,apartadó,39.857,7.851,-76.649
05051,antioquia,arboletes,4.5,8.753,-76.439
05059,antioquia,armenia-antioquia,1800.0,6.158,-75.772
05088,antioquia,bello,1831.0,6.35,-75.571
05086,antioquia,belmira,2420.0,6.694,-75.653
05091,antioquia,betania,1550.0,5.728,-75.979
05093,antioquia,betulia-antioquia,395.0,6.214,-75.903
05107,antioquia,briceño-antioquia,949.0,7.086,-75.598
05113,antioquia,buriticá,1024.0,6.798,-75.89
05125,antioquia,caicedo,550.0,6.406,-75.981
05129,antioquia,caldas-antioquia,2041.0,6.049,-75.614
05134,antioquia,campamento,480.0,7.203,-75.319
05145,antioquia,caramanta,1140.333,5.56,-75.636
05147,antioquia,carepa,31.833,7.777,-76.687
05148,antioquia,carmen-de-viboral,2235.0,6.012,-75.309
05150,antioquia,carolina,1770.0,6.7,-75.267
05154,antioquia,caucasia,57.125,7.973,-75.089
05138,antioquia,cañasgordas,1247.0,6.754,-76.032
05172,antioquia,chigorodó,41.714,7.659,-76.664
05101,antioquia,ciudad-bolívar,1344.0,5.852,-76.01
05197,antioquia,cocorná,870.0,6.014,-75.15
05206,antioquia,concepción-antioquia,1280.0,6.397,-75.259
05209,antioquia,concordia-antioquia,323.0,6.069,-75.897
05120,antioquia,cáceres,118.545,7.696,-75.32
05234,antioquia,dabeiba,495.0,7.026,-76.304
05250,antioquia,el-bagre,278.429,7.631,-74.717
05264,antioquia,entrerrios,2770.5,6.598,-75.58
05282,antioquia,fredonia,969.667,5.856,-75.681
05284,antioquia,frontino,1267.75,6.804,-76.21
05306,antioquia,giraldo,15.0,6.694,-75.967
05308,antioquia,girardota,1600.0,6.368,-75.454
05313,antioquia,granada-antioquia,1905.0,6.14,-75.101
05318,antioquia,guarne,2400.0,6.283,-75.5
05310,antioquia,gómez-plata,1850.0,6.678,-75.22
05347,antioquia,heliconia,255.0,6.178,-75.705
05361,antioquia,ituango,1351.667,7.258,-75.695
05364,antioquia,jardín,912.5,5.586,-75.817
05368,antioquia,jericó-antioquia,1726.5,5.802,-75.757
05376,antioquia,la-ceja,2160.0,6.033,-75.4
05390,antioquia,la-pintada,860.0,5.783,-75.617
05400,antioquia,la-unión-antioquia,2469.0,5.942,-75.35
05411,antioquia,liborina,1250.0,6.721,-75.758
05440,antioquia,marinilla,2125.0,6.172,-75.333
05001,antioquia,medellín,1956.8,6.276,-75.612
05467,antioquia,montebello,560.0,5.951,-75.537
05475,antioquia,murindó,23.0,7.0,-76.75
05480,antioquia,mutatá,130.8,7.355,-76.555
05495,antioquia,nechí,81.429,8.052,-74.779
05490,antioquia,necoclí,33.0,8.486,-76.662
05501,antioquia,olaya,575.0,6.629,-75.811
05543,antioquia,peque,2440.0,7.033,-75.933
05541,antioquia,peñol,247.0,6.214,-75.241
05576,antioquia,pueblorrico,2100.0,5.791,-75.839
05579,antioquia,puerto-berrío,217.9,6.546,-74.433
05585,antioquia,puerto-nare,1309.333,6.212,-74.622
05591,antioquia,puerto-triunfo,144.5,5.938,-74.601
05604,antioquia,remedios,508.25,7.062,-74.72
05615,antioquia,rionegro-antioquia,1112.4,6.154,-75.379
05628,antioquia,sabanalarga-antioquia,1055.0,6.89,-75.791
05642,antioquia,salgar,2100.0,5.935,-75.861
68669,antioquia,san-andrés-antioquia,1895.0,6.928,-75.659
05649,antioquia,san-carlos-antioquia,792.0,6.197,-74.961
05652,antioquia,san-francisco-antioquia,1325.0,5.964,-75.101
05656,antioquia,san-jerónimo,943.333,6.441,-75.73
05658,antioquia,san-josé-de-la-montaña,2373.0,6.88,-75.672
05659,antioquia,san-juan-de-urabá,3.0,8.736,-76.508
05660,antioquia,san-luis-antioquia,980.0,5.998,-74.938
05665,antioquia,san-pedro-de-urabá,137.0,8.278,-76.391
05667,antioquia,san-rafael,525.333,6.344,-75.006
05670,antioquia,san-roque,1193.0,6.493,-74.906
05674,antioquia,san-vicente,1965.0,6.312,-75.254
05679,antioquia,santa-bárbara-antioquia,1680.0,5.86,-75.556
05042,antioquia,santa-fe-de-antioquia,767.6,6.485,-75.857
05686,antioquia,santa-rosa-de-osos,2265.0,6.652,-75.319
05690,antioquia,santo-domingo,1916.667,6.492,-75.148
05736,antioquia,segovia,828.25,7.234,-74.735
05756,antioquia,sonsón,1516.429,5.732,-75.001
05761,antioquia,sopetrán,504.667,6.522,-75.789
05790,antioquia,tarazá,220.0,7.488,-75.374
05809,antioquia,titiribí,1032.5,6.045,-75.806
05837,antioquia,turbo,44.467,7.952,-76.678
05789,antioquia,támesis,879.0,5.734,-75.662
05842,antioquia,uramita,650.0,6.874,-76.15
05847,antioquia,urrao,1721.143,6.327,-76.146
05854,antioquia,valdivia,86.667,7.306,-75.354
05856,antioquia,valparaiso,505.0,5.717,-75.6
05858,antioquia,vegachí,1023.333,6.796,-74.793
05861,antioquia,venecia-antioquia,1250.0,5.977,-75.828
05873,antioquia,vigia-del-fuerte,19.333,6.441,-76.764
05885,antioquia,yalí,970.0,6.64,-74.875
05887,antioquia,yarumal,2484.25,6.927,-75.422
05890,antioquia,yolombó,796.6,6.654,-75.038
05893,antioquia,yondó-casabe,107.375,6.877,-74.172
05895,antioquia,zaragoza,145.0,7.462,-74.86
81001,arauca,arauca,119.444,7.037,-70.607
81065,arauca,arauquita,136.429,6.998,-71.266
81220,arauca,cravo-norte,81.5,6.169,-69.917
81736,arauca,saravena,803.429,6.851,-71.933
81794,arauca,tame,610.8,6.319,-71.922
88564,archipiélago-de-san-andrés-providencia-y-santa-catalina,san-andres-y-providencia-santa-isabel,27.875,13.352,-81.379
88001,archipiélago-de-san-andrés-providencia-y-santa-catalina,san-andrés-archipiélago-de-san-andrés-providencia-y-santa-catalina,10.667,12.905,-81.511
08001,atlántico,barranquilla,5.6,11.022,-74.803
08137,atlántico,campo-de-la-cruz,4.0,10.377,-74.888
08141,atlántico,candelaria-atlántico,24.5,10.488,-74.889
08372,atlántico,juan-de-acosta,20.0,10.834,-75.04
08421,atlántico,luruaco,20.0,10.439,-75.108
08436,atlántico,manatí,12.5,10.455,-75.001
08549,atlántico,piojó,80.0,10.722,-75.14
08558,atlántico,polonuevo,80.0,10.779,-74.858
08560,atlántico,ponedera,5.0,10.508,-74.822
08573,atlántico,puerto-colombia-atlántico,5.0,10.988,-74.97
08606,atlántico,repelón,10.25,10.5,-75.123
08638,atlántico,sabanalarga-atlántico,93.333,10.604,-74.964
08675,atlántico,santa-lucia,10.4,10.331,-74.976
08758,atlántico,soledad,17.0,10.913,-74.773
08770,atlántico,suan,8.0,10.282,-74.909
08832,atlántico,tubará,200.0,10.955,-74.995
11001,bogotá-d-c,bogota-d-c,2621.033,4.603,-74.11
13006,bolívar,achí,24.857,8.565,-74.563
13030,bolívar,altos-del-rosario,24.0,8.812,-74.165
13042,bolívar,arenal,142.0,8.413,-74.012
13052,bolívar,arjona,17.0,10.168,-75.323
13062,bolívar,arroyohondo,7.0,10.235,-74.969
13074,bolívar,barranco-de-loba,21.0,8.874,-74.26
13140,bolívar,calamar-bolívar,8.2,10.249,-74.945
13160,bolívar,cantagallo,121.75,7.267,-74.038
13001,bolívar,cartagena-de-indias,4.818,10.305,-75.575
13188,bolívar,cicuco,17.667,9.274,-74.689
13212,bolívar,córdoba-bolívar,16.667,9.505,-74.792
13244,bolívar,el-carmén-de-bolívar,51.286,9.847,-75.291
13248,bolívar,el-guamo,75.0,10.064,-74.852
13268,bolívar,el-peñón-bolívar,28.0,8.99,-73.947
13300,bolívar,hatillo-de-loba,20.0,9.004,-74.406
13430,bolívar,magangué,23.417,9.138,-74.719
13433,bolívar,mahates,10.889,10.195,-75.21
13440,bolívar,margarita,23.0,9.03,-74.209
13442,bolívar,maría-la-baja,21.64,9.947,-75.315
13468,bolívar,mompós,18.462,9.097,-74.625
13458,bolívar,montecristo,107.5,8.258,-74.479
13473,bolívar,morales-bolívar,75.5,8.308,-73.858
13549,bolívar,pinillos,20.615,8.897,-74.402
13580,bolívar,regidor,35.0,8.666,-73.821
13600,bolívar,ríoviejo,78.0,8.545,-73.922
13650,bolívar,san-fernando,32.5,9.097,-74.361
13654,bolívar,san-jacinto,75.0,9.879,-75.233
13655,bolívar,san-jacinto-del-cauca,204.222,8.284,-74.646
13657,bolívar,san-juan-nepomuceno,72.5,9.948,-75.117
13667,bolívar,san-martín-de-loba,40.0,8.823,-73.966
13670,bolívar,san-pablo-bolívar,160.167,7.552,-73.956
13673,bolívar,santa-catalina,20.0,10.794,-75.261
13688,bolívar,santa-rosa-del-sur,507.5,7.942,-74.138
13744,bolívar,simití,65.667,8.009,-73.906
13780,bolívar,talaigua-nuevo,15.0,9.383,-74.7
13894,bolívar,zambrano,33.0,9.734,-74.872
15022,boyacá,almeida,1834.8,4.95,-73.388
15047,boyacá,aquitania,1437.278,5.503,-72.884
15051,boyacá,arcabuco,2600.0,5.761,-73.444
15087,boyacá,belén-boyacá,2500.0,6.014,-72.806
15090,boyacá,berbeo,1370.0,5.184,-73.087
15092,boyacá,betéitiva,2575.0,5.907,-72.811
15097,boyacá,boavita,1123.333,6.367,-72.607
15104,boyacá,buenavista-boyacá,2200.0,5.515,-73.943
15135,boyacá,campohermoso,1335.167,5.025,-73.143
15162,boyacá,cerinza,2643.0,5.962,-72.938
15172,boyacá,chinavita,1420.667,5.201,-73.354
15176,boyacá,chiquinquirá,2593.0,5.583,-73.35
15180,boyacá,chiscas,2415.0,6.541,-72.502
15183,boyacá,chita,2888.0,6.188,-72.466
15187,boyacá,chivatá,2900.0,5.559,-73.282
15236,boyacá,chivor,1610.0,4.89,-73.353
15232,boyacá,chíquiza,2982.5,5.645,-73.459
15212,boyacá,coper,190.0,5.475,-74.046
15215,boyacá,corrales,2400.0,5.833,-72.867
15218,boyacá,covarachía,2400.0,6.515,-72.733
15223,boyacá,cubará,374.0,7.035,-72.153
15226,boyacá,cuítiva,737.25,5.585,-72.946
15204,boyacá,cómbita,2820.0,5.629,-73.324
15238,boyacá,duitama,2694.333,5.834,-73.062
15244,boyacá,el-cocuy,2969.0,6.397,-72.437
15248,boyacá,el-espino,3035.0,6.487,-72.476
15272,boyacá,firavitoba,2489.0,5.672,-72.984
15293,boyacá,gachantivá,2375.0,5.751,-73.549
15299,boyacá,garagoa,1604.0,5.067,-73.338
15325,boyacá,guayatá,1580.0,4.97,-73.489
15332,boyacá,guicán,3643.0,6.47,-72.374
15296,boyacá,gámeza,3200.0,5.782,-72.77
15362,boyacá,iza,2470.0,5.616,-72.976
15367,boyacá,jenesano,1184.0,5.401,-73.364
15104,boyacá,jericó-boyacá,2962.0,6.141,-72.593
15380,boyacá,la-capilla,1917.0,5.099,-73.436
15403,boyacá,la-uvita,2950.0,6.248,-72.549
15377,boyacá,labranzagrande,1125.0,5.567,-72.584
15425,boyacá,macanal,1581.667,4.969,-73.317
15442,boyacá,maripí,1390.0,5.55,-74.017
15104,boyacá,miraflores-boyacá,1170.333,5.186,-73.129
15464,boyacá,mongua,2900.0,5.758,-72.794
15466,boyacá,monguí,1500.0,5.721,-72.849
15469,boyacá,moniquirá,1050.8,5.865,-73.571
15476,boyacá,motavita,3195.0,5.634,-73.386
15480,boyacá,muzo,850.0,5.535,-74.101
15491,boyacá,nobsa,2515.0,5.778,-72.917
15494,boyacá,nuevo-colón,2438.0,5.353,-73.454
15500,boyacá,oicatá,2645.0,5.606,-73.323
15507,boyacá,otanche,1100.0,5.662,-74.185
15511,boyacá,pachavita,2160.0,5.139,-73.396
15516,boyacá,paipa,2508.143,5.795,-73.128
15518,boyacá,pajarito,1231.8,5.355,-72.708
15531,boyacá,pauna,969.0,5.65,-74.006
15537,boyacá,paz-de-rio,2495.0,5.992,-72.766
15542,boyacá,pesca,2609.333,5.552,-73.058
15550,boyacá,pisva,1482.0,5.721,-72.488
15572,boyacá,puerto-boyacá,257.25,5.937,-74.539
15514,boyacá,páez,1175.0,5.093,-73.046
15580,boyacá,quípama,1250.0,5.521,-74.182
15599,boyacá,ramiriquí,1604.0,5.402,-73.35
15621,boyacá,rondón,2140.0,5.354,-73.21
15600,boyacá,ráquira,2290.0,5.539,-73.631
15632,boyacá,saboyá,2550.0,5.696,-73.759
15646,boyacá,samacá,2820.5,5.463,-73.518
15667,boyacá,san-luis-de-gaceno,400.0,4.82,-73.17
15673,boyacá,san-mateo,1100.0,6.45,-72.617
15676,boyacá,san-miguel-de-sema,2550.0,5.55,-73.733
15681,boyacá,san-pablo-de-borbur,751.0,5.649,-74.069
15104,boyacá,santa-maría-boyacá,752.889,4.856,-73.248
15693,boyacá,santa-rosa-de-viterbo,2595.0,5.843,-72.985
15696,boyacá,santa-sofía,2520.0,5.715,-73.63
15686,boyacá,santana,1520.0,6.077,-73.469
15720,boyacá,sativanorte,2917.0,6.128,-72.738
15740,boyacá,siachoque,2720.0,5.506,-73.251
15757,boyacá,socha,1845.0,5.98,-72.791
15755,boyacá,socotá,2787.0,6.036,-72.599
15759,boyacá,sogamoso,2751.0,5.701,-72.916
15761,boyacá,somondoco,2280.0,4.957,-73.434
15764,boyacá,soracá,2873.0,5.519,-73.311
15763,boyacá,sotaquirá,2639.0,5.747,-73.208
15774,boyacá,susacón,2550.0,6.232,-72.689
15776,boyacá,sutamarchán,2500.0,5.618,-73.613
15778,boyacá,sutatenza,1930.0,5.022,-73.449
15638,boyacá,sáchica,2560.0,5.588,-73.513
15790,boyacá,tasco,2486.0,5.86,-72.785
15798,boyacá,tenza,1571.6,5.078,-73.419
15804,boyacá,tibaná,2115.0,5.315,-73.396
15806,boyacá,tibasosa,2495.0,5.78,-73.001
15814,boyacá,toca,2764.0,5.591,-73.185
15822,boyacá,tota,32.0,5.492,-72.938
15001,boyacá,tunja,2690.0,5.543,-73.361
15835,boyacá,turmequé,2400.0,5.318,-73.496
15837,boyacá,tuta,2585.333,5.684,-73.236
15839,boyacá,tutazá,2816.5,6.067,-72.861
15861,boyacá,ventaquemada,3014.0,5.388,-73.583
15407,boyacá,villa-de-leiva,2176.625,5.654,-73.537
15897,boyacá,zetaquirá,1578.0,5.289,-73.17
15842,boyacá,úmbita,2300.0,5.219,-73.445
17013,caldas,aguadas,1664.75,5.619,-75.478
17042,caldas,anserma,853.0,5.234,-75.808
17088,caldas,belalcazar,947.0,4.988,-75.859
17174,caldas,chinchina,1500.0,5.017,-75.517
17272,caldas,filadelfia,801.0,5.28,-75.648
17380,caldas,la-dorada,197.333,5.449,-74.709
17001,caldas,manizales,1715.778,5.056,-75.461
17433,caldas,manzanares,1974.0,5.266,-75.144
17442,caldas,marmato,650.0,5.467,-75.617
17444,caldas,marquetalia,1550.0,5.299,-75.057
17446,caldas,marulanda,1700.0,5.278,-75.267
17486,caldas,neira,1030.2,5.218,-75.583
17495,caldas,norcasia,737.0,5.574,-74.892
17524,caldas,palestina-caldas,899.333,5.106,-75.685
17541,caldas,pensilvania,216.0,5.374,-75.149
17513,caldas,pácora,1301.0,5.511,-75.511
17614,caldas,riosucio-caldas,1846.5,5.431,-75.712
17616,caldas,risaralda,980.0,5.133,-75.717
17653,caldas,salamina-caldas,2388.75,5.386,-75.379
17662,caldas,samaná,1553.5,5.476,-75.025
17777,caldas,supia,1192.0,5.453,-75.653
17867,caldas,victoria,497.25,5.446,-74.852
17873,caldas,villamaria,3586.235,4.883,-75.407
17877,caldas,viterbo,128.0,5.067,-75.883
18150,caquetá,cartagena-del-chairá,200.0,-0.166,-73.097
18247,caquetá,el-doncello,374.333,1.666,-75.224
18001,caquetá,florencia-caquetá,423.0,1.653,-75.62
18753,caquetá,san-vicente-del-caguán,485.0,2.088,-74.767
18756,caquetá,solano,168.286,-0.254,-73.286
85010,casanare,aguazul,294.833,5.144,-72.517
85015,casanare,chámeza,180.0,5.204,-72.903
85125,casanare,hato-corozal,354.2,6.025,-71.853
85139,casanare,mani,180.0,4.561,-72.059
85162,casanare,monterrey,598.0,4.936,-72.883
85225,casanare,nunchía,308.0,5.575,-72.15
85230,casanare,orocué,131.333,4.837,-71.453
85250,casanare,paz-de-ariporo,264.667,5.759,-71.326
85263,casanare,pore,355.0,5.689,-72.021
85300,casanare,sabanalarga-casanare,350.333,4.779,-73.026
85325,casanare,san-luis-de-palenque,170.0,5.42,-71.728
85315,casanare,sácama,120.0,6.088,-72.191
85410,casanare,tauramena,344.2,4.9,-72.72
85430,casanare,trinidad,221.5,5.417,-71.667
85400,casanare,támara,233.5,5.783,-72.135
85440,casanare,villanueva-casanare,255.0,4.655,-72.917
85001,casanare,yopal,386.25,5.405,-72.371
19050,cauca,argelia-cauca,1750.0,2.311,-77.259
19075,cauca,balboa-cauca,1700.0,2.033,-77.222
19110,cauca,buenos-aires,751.375,3.0,-76.649
19130,cauca,cajibío,1267.5,2.647,-76.667
19137,cauca,caldono,293.0,2.881,-76.408
19142,cauca,caloto,270.6,3.063,-76.372
19212,cauca,corinto,1107.0,3.179,-76.248
19256,cauca,el-tambo-cauca,1326.6,2.533,-76.96
19318,cauca,guapi,59.625,2.812,-78.03
19355,cauca,inzá,2170.0,2.519,-76.11
19364,cauca,jambaló,30.0,2.733,-76.333
19392,cauca,la-sierra,1870.0,2.18,-76.758
19418,cauca,lópez,111.667,2.977,-77.288
19455,cauca,miranda,944.5,3.252,-76.244
19473,cauca,morales-cauca,1692.0,2.769,-76.624
19532,cauca,patía-el-bordo,715.625,2.193,-77.029
19548,cauca,piendamó,1830.0,2.648,-76.528
19001,cauca,popayán,1537.692,2.471,-76.572
19573,cauca,puerto-tejada,983.0,3.263,-76.414
19585,cauca,puracé-coconuco,2422.053,2.303,-76.357
19517,cauca,páez-belalcázar,1726.455,2.735,-76.007
19622,cauca,rosas,1625.0,2.247,-76.763
19701,cauca,santa-rosa-cauca,1332.5,1.636,-76.553
19698,cauca,santander-de-quilichao,636.667,2.991,-76.514
19743,cauca,silvia,1894.333,2.66,-76.347
19760,cauca,sotará-paispamba,2443.333,2.238,-76.604
19780,cauca,suárez-cauca,1171.0,2.943,-76.707
19809,cauca,timbiquí,33.333,2.811,-77.584
19807,cauca,timbío,1820.0,2.335,-76.62
19821,cauca,toribío,1782.0,2.993,-76.248
19824,cauca,totoró,1867.333,2.505,-76.357
19845,cauca,villa-rica,988.0,3.179,-76.463
20011,cesar,aguachica,166.7,8.208,-73.623
20013,cesar,agustín-codazzi,280.846,9.918,-73.281
20032,cesar,astrea,43.333,9.54,-73.881
20045,cesar,becerrill,118.667,9.763,-73.268
20060,cesar,bosconia,101.875,9.962,-73.864
20175,cesar,chimichagua,71.6,9.238,-73.787
20178,cesar,chiriguaná,75.0,9.365,-73.541
20228,cesar,curumaní,222.667,9.204,-73.539
20238,cesar,el-copey,110.75,10.204,-74.017
20250,cesar,el-paso,52.857,9.654,-73.673
20295,cesar,gamarra,861.4,8.268,-73.753
20383,cesar,la-gloria,166.0,8.532,-73.641
20400,cesar,la-jagua-de-ibirico,170.0,9.562,-73.339
20621,cesar,la-paz-cesar,505.0,10.35,-73.111
20443,cesar,manaure-balcón-del-cesar,1918.0,10.365,-72.998
20517,cesar,pailitas,174.75,8.98,-73.614
20550,cesar,pelaya,40.0,8.713,-73.703
20570,cesar,pueblo-bello,640.0,10.515,-73.585
20614,cesar,río-de-oro,750.75,8.204,-73.466
20710,cesar,san-alberto,229.0,7.766,-73.436
20750,cesar,san-diego,164.0,10.128,-73.277
20770,cesar,san-martín-cesar,271.0,7.996,-73.44
20787,cesar,tamalameque,26.5,8.864,-73.816
20001,cesar,valledupar,270.242,10.343,-73.413
27006,chocó,acandí,2.0,8.532,-77.28
27025,chocó,alto-baudó-pie-de-pato,40.0,5.521,-76.973
27073,chocó,bagadó,90.0,5.412,-76.418
27075,chocó,bahía-solano-mutis,9.0,6.4,-77.443
27099,chocó,bojayá-bellavista,35.0,6.673,-76.978
27150,chocó,carmen-del-darién-curbaradó,25.0,7.083,-76.917
27205,chocó,condoto,61.0,5.084,-76.679
27160,chocó,cértegui,77.0,5.375,-76.613
27135,chocó,el-cantón-del-san-pablo-managrú,64.0,5.334,-76.728
27245,chocó,el-carmen-choco,1579.444,5.809,-76.214
27250,chocó,el-litoral-del-san-juán-docordó,14.5,4.227,-77.08
27361,chocó,istmina,38.75,4.901,-76.831
27372,chocó,juradó,200.0,7.05,-77.65
27413,chocó,lloró,76.0,5.503,-76.544
27050,chocó,medio-atrato-beté,62.5,6.105,-76.868
27430,chocó,medio-baudó-boca-de-pepé,31.0,5.19,-76.954
27450,chocó,medio-san-juan,39.5,4.898,-76.831
27495,chocó,nuquí,26.667,5.588,-77.492
27491,chocó,nóvita,81.0,4.949,-76.59
27001,chocó,quibdó,33.833,5.913,-76.651
27600,chocó,rio-quito-paimadó,44.0,5.554,-76.745
27615,chocó,riosucio-choco,23.167,7.45,-77.205
27660,chocó,san-josé-del-palmar,1149.5,4.869,-76.249
27745,chocó,sipí,110.0,4.667,-76.65
27787,chocó,tadó,93.0,5.268,-76.557
27800,chocó,unguía,8.0,8.194,-77.068
25035,cundinamarca,anapoima,810.0,4.582,-74.527
25040,cundinamarca,anolaima,1882.5,4.788,-74.441
25099,cundinamarca,bojacá,2610.0,4.696,-74.334
25120,cundinamarca,cabrera-cundinamarca,1601.0,3.964,-74.453
25148,cundinamarca,caparrapí,1235.0,5.419,-74.479
25154,cundinamarca,carmen-de-carupa,3035.667,5.343,-73.884
25168,cundinamarca,chaguaní,1200.0,4.985,-74.581
25181,cundinamarca,choachí,2780.0,4.558,-73.963
25183,cundinamarca,chocontá,2776.333,5.085,-73.711
25175,cundinamarca,chía,2550.0,4.886,-74.054
25214,cundinamarca,cota,2570.0,4.833,-74.1
25224,cundinamarca,cucunubá,3.0,5.25,-73.77
25151,cundinamarca,cáqueza,1696.5,4.4,-73.927
25245,cundinamarca,el-colegio,1600.0,4.573,-74.405
25258,cundinamarca,el-peñón-cundinamarca,1400.0,5.253,-74.294
25269,cundinamarca,facatativá,2671.667,4.833,-74.347
25286,cundinamarca,funza,2560.0,4.743,-74.176
25290,cundinamarca,fusagasugá,1900.0,4.388,-74.33
25279,cundinamarca,fómeque,1900.0,4.487,-73.89
25288,cundinamarca,fúquene,2580.0,5.467,-73.735
25293,cundinamarca,gachalá,1206.571,4.697,-73.491
25295,cundinamarca,gachancipá,2750.0,4.983,-73.865
25297,cundinamarca,gachetá,1918.0,4.833,-73.63
25299,cundinamarca,gama,2175.0,4.765,-73.613
25307,cundinamarca,girardot,283.0,4.294,-74.812
25317,cundinamarca,guachetá,2690.0,5.386,-73.691
25320,cundinamarca,guaduas,289.0,5.199,-74.677
25322,cundinamarca,guasca,3070.2,4.816,-73.843
25326,cundinamarca,guatavita,2848.333,4.872,-73.765
25328,cundinamarca,guayabal-de-síquima,2200.0,4.842,-74.462
25335,cundinamarca,guayabetal,985.0,4.218,-73.81
25339,cundinamarca,gutiérrez,2248.333,4.179,-74.034
25368,cundinamarca,jerusalén,297.0,4.562,-74.702
25372,cundinamarca,junín,2316.5,4.739,-73.671
25377,cundinamarca,la-calera,3030.667,4.664,-73.844
25394,cundinamarca,la-palma,1201.0,5.303,-74.367
25402,cundinamarca,la-vega,1877.5,4.934,-74.337
25407,cundinamarca,lenguazaque,2620.0,5.316,-73.705
25426,cundinamarca,machetá,1948.333,5.081,-73.588
25430,cundinamarca,madrid,2557.0,4.77,-74.25
25436,cundinamarca,manta,2030.0,4.993,-73.445
25438,cundinamarca,medina,648.0,4.381,-73.471
25473,cundinamarca,mosquera-cundinamarca,2544.75,4.704,-74.221
25483,cundinamarca,nariño-cundinamarca,283.0,4.393,-74.832
25486,cundinamarca,nemocón,2572.0,5.09,-73.881
25488,cundinamarca,nilo,461.0,4.311,-74.616
25489,cundinamarca,nimaima,620.0,5.125,-74.447
25491,cundinamarca,nocaima,1500.0,5.065,-74.382
25513,cundinamarca,pacho,63.333,5.169,-74.191
25518,cundinamarca,paime,138.0,5.371,-74.155
25524,cundinamarca,pandi,812.5,4.188,-74.494
25530,cundinamarca,paratebueno,276.25,4.377,-73.282
25535,cundinamarca,pasca,2248.0,4.33,-74.356
25572,cundinamarca,puerto-salgar,614.75,5.548,-74.631
25580,cundinamarca,pulí,398.0,4.646,-74.659
25592,cundinamarca,quebradanegra,1107.0,5.138,-74.481
25594,cundinamarca,quetame,1240.0,4.314,-73.875
25649,cundinamarca,san-bernardo-cundinamarca,2700.0,4.152,-74.36
25653,cundinamarca,san-cayetano-cundinamarca,2503.5,5.317,-74.042
25662,cundinamarca,san-juan-de-rioseco,1906.5,4.878,-74.681
25718,cundinamarca,sasaima,1425.0,4.973,-74.412
25736,cundinamarca,sesquilé,2567.0,5.034,-73.848
25740,cundinamarca,sibaté,2685.0,4.473,-74.03
25743,cundinamarca,silvania,1245.0,4.41,-74.398
25745,cundinamarca,simijaca,2584.0,5.559,-73.838
25754,cundinamarca,soacha,2900.0,4.506,-74.189
25758,cundinamarca,sopó,2585.0,4.88,-73.958
25769,cundinamarca,subachoque,2650.0,4.928,-74.167
25772,cundinamarca,suesca,2623.25,5.127,-73.784
25779,cundinamarca,susa,2600.0,5.462,-73.802
25785,cundinamarca,tabio,2587.5,4.916,-74.085
25793,cundinamarca,tausa,1551.5,5.199,-73.924
25799,cundinamarca,tenjo,2565.0,4.824,-74.169
25805,cundinamarca,tibacuy,1592.5,4.349,-74.452
25807,cundinamarca,tibirita,1769.0,5.05,-73.527
25815,cundinamarca,tocaima,361.0,4.455,-74.609
25817,cundinamarca,tocancipá,2497.0,4.983,-73.933
25839,cundinamarca,ubalá,1764.583,4.794,-73.462
25841,cundinamarca,ubaque,2980.0,4.483,-74.03
25843,cundinamarca,ubaté,2582.5,5.316,-73.822
25845,cundinamarca,une,220.0,4.429,-74.01
25506,cundinamarca,venecia-cundinamarca,1450.0,4.082,-74.489
25871,cundinamarca,villagómez,1575.0,5.272,-74.197
25873,cundinamarca,villapinzón,2522.5,5.25,-73.558
25875,cundinamarca,villeta,523.0,5.023,-74.487
25878,cundinamarca,viotá,567.0,4.443,-74.542
25885,cundinamarca,yacopí,1381.5,5.492,-74.361
25899,cundinamarca,zipaquirá,3005.667,5.04,-74.019
25851,cundinamarca,útica,497.0,5.196,-74.486
23068,córdoba,ayapel,23.333,8.323,-75.046
23079,córdoba,buenavista-córdoba,37.0,8.068,-75.361
23090,córdoba,canalete,37.5,8.787,-76.236
23162,córdoba,cereté,19.5,8.895,-75.772
23168,córdoba,chima-córdoba,26.667,9.15,-75.618
23182,córdoba,chinú,125.0,9.118,-75.393
23189,córdoba,ciénaga-de-oro,14.0,8.925,-75.708
23300,córdoba,cotorra,20.0,9.042,-75.775
23350,córdoba,la-apartada,50.0,8.053,-75.339
23417,córdoba,lorica,28.25,9.268,-75.853
23466,córdoba,montelíbano,86.5,8.038,-75.565
23001,córdoba,montería,39.412,8.657,-75.92
23555,córdoba,planeta-rica,99.0,8.34,-75.572
23570,córdoba,pueblo-nuevo,62.5,8.455,-75.438
23574,córdoba,puerto-escondido,15.0,9.071,-76.224
23580,córdoba,puerto-libertador,61.667,7.917,-75.679
23660,córdoba,sahagún,125.0,8.741,-75.499
23670,córdoba,san-andrés-de-sotavento,71.875,9.202,-75.519
23672,córdoba,san-antero,20.5,9.351,-75.793
23675,córdoba,san-bernardo-del-viento,9.667,9.306,-75.974
23678,córdoba,san-carlos-córdoba,51.857,8.756,-75.707
23682,córdoba,san-jose-de-ure,200.0,7.788,-75.538
23686,córdoba,san-pelayo,16.333,9.017,-75.837
23807,córdoba,tierralta,176.464,7.922,-76.218
23855,córdoba,valencia,82.5,8.291,-76.155
94343,guainía,barranco-mina,96.75,3.691,-69.101
94001,guainía,inírida,100.0,3.871,-67.925
95025,guaviare,el-retorno,150.0,2.373,-72.64
95001,guaviare,san-josé-del-guaviare,194.0,2.583,-72.538
41006,huila,acevedo,2225.0,1.583,-76.0
41013,huila,agrado,988.714,2.259,-75.704
41016,huila,aipe,480.667,3.23,-75.273
41020,huila,algeciras,1332.857,2.542,-75.298
41026,huila,altamira,1368.0,2.079,-75.736
41078,huila,baraya,851.625,3.172,-75.026
41132,huila,campoalegre,585.727,2.669,-75.355
41206,huila,colombia,1188.75,3.553,-74.78
41298,huila,garzón,1107.0,2.185,-75.609
41306,huila,gigante,1090.75,2.357,-75.554
41349,huila,hobo,636.0,2.575,-75.436
41378,huila,la-argentina,1500.0,2.199,-75.972
41396,huila,la-plata,1603.75,2.295,-76.01
41001,huila,neiva,1005.611,2.931,-75.238
41483,huila,nátaga,1747.5,2.602,-75.783
41518,huila,paicol,786.0,2.467,-75.833
41524,huila,palermo,635.13,2.857,-75.392
41530,huila,palestina-huila,1645.0,1.686,-76.131
41548,huila,pital,805.0,2.199,-75.779
41551,huila,pitalito,1400.0,2.035,-76.086
41615,huila,rivera,925.0,2.789,-75.186
41660,huila,saladoblanco,1919.0,2.022,-76.114
41668,huila,san-agustín,1240.75,1.954,-76.343
41676,huila,santa-maría-huila,1187.75,2.95,-75.572
41791,huila,tarqui,1015.0,2.113,-75.845
41799,huila,tello,509.833,3.058,-75.185
41801,huila,teruel,1322.857,2.761,-75.59
41797,huila,tesalia,905.0,2.495,-75.687
41872,huila,villavieja,422.222,3.303,-75.167
41885,huila,yaguará,589.125,2.631,-75.53
41357,huila,íquira,778.75,2.697,-75.636
44035,la-guajira,albania-la-guajira,126.455,11.158,-72.552
44078,la-guajira,barrancas,234.722,11.016,-72.7
44090,la-guajira,dibulla,159.143,11.171,-73.394
44098,la-guajira,distracción,322.5,10.901,-72.991
44279,la-guajira,fonseca,281.25,10.873,-72.881
44378,la-guajira,hato-nuevo,266.833,11.106,-72.705
44420,la-guajira,la-jagua-del-pilar,100.0,10.45,-73.15
44430,la-guajira,maicao,116.769,11.334,-72.342
44560,la-guajira,manaure,21.5,11.656,-72.621
44001,la-guajira,riohacha,47.286,11.355,-72.916
44650,la-guajira,san-juan-del-cesar,452.375,10.878,-73.031
44847,la-guajira,uribia,58.531,12.089,-71.698
44855,la-guajira,urumita,255.0,10.566,-73.016
44874,la-guajira,villanueva-la-guajira,206.667,10.539,-73.072
47030,magdalena,algarrobo,122.5,10.254,-74.045
47053,magdalena,aracataca,47.8,10.56,-74.168
47058,magdalena,ariguaní-el-dificil,115.0,9.844,-74.042
47189,magdalena,ciénaga,406.636,10.868,-74.124
47245,magdalena,el-banco,28.1,9.054,-74.011
47258,magdalena,el-piñón,41.0,10.344,-74.732
47268,magdalena,el-retén,32.75,10.6,-74.249
47288,magdalena,fundación,368.6,10.448,-74.049
47460,magdalena,nueva-granada,95.0,9.743,-74.355
47551,magdalena,pivijai,50.0,10.394,-74.428
47555,magdalena,plato,53.5,9.791,-74.681
47570,magdalena,puebloviejo,13.5,10.849,-74.317
47605,magdalena,remolino,10.0,10.591,-74.647
47675,magdalena,salamina-magdalena,15.0,10.488,-74.79
47692,magdalena,san-sebastián-de-buenavista,46.667,9.407,-74.317
47703,magdalena,san-zenón,25.0,9.248,-74.502
47707,magdalena,santa-ana,62.667,9.535,-74.295
47720,magdalena,santa-bárbara-de-pinto,39.0,9.478,-74.697
47001,magdalena,santa-marta,345.03,11.207,-73.988
47745,magdalena,sitionuevo,4.0,11.006,-74.684
47798,magdalena,tenerife,13.0,9.903,-74.864
47980,magdalena,zona-bananera,28.467,10.826,-74.165
50006,meta,acacías,863.667,4.102,-73.778
50110,meta,barranca-de-upía,213.5,4.527,-72.967
50124,meta,cabuyaro,199.333,4.338,-72.875
50150,meta,castilla-la-nueva,297.2,3.817,-73.515
50223,meta,cubarral,600.0,3.791,-73.843
50226,meta,cumaral,347.0,4.306,-73.385
50245,meta,el-calvario,2315.0,4.297,-73.698
50251,meta,el-castillo,600.0,3.531,-73.901
50270,meta,el-dorado,800.0,3.742,-73.835
50287,meta,fuente-de-oro,278.333,3.4,-73.611
50313,meta,granada-meta,351.375,3.461,-73.766
50318,meta,guamal-meta,662.5,3.901,-73.787
50350,meta,la-macarena,281.667,2.349,-73.888
50400,meta,lejanías,760.0,3.555,-74.038
50325,meta,mapiripán,226.5,3.045,-72.407
50330,meta,mesetas,620.0,3.38,-74.043
50450,meta,puerto-concordia,235.0,2.833,-72.809
50568,meta,puerto-gaitán,149.2,4.556,-71.612
50577,meta,puerto-lleras,242.8,3.204,-73.293
50573,meta,puerto-lópez,189.692,4.015,-72.827
50590,meta,puerto-rico-meta,220.0,2.9,-72.9
50606,meta,restrepo-meta,677.25,4.245,-73.577
50680,meta,san-carlos-de-guaroa,268.333,3.856,-73.33
50683,meta,san-juan-de-arama,486.667,3.348,-73.942
50689,meta,san-martín-meta,329.75,3.712,-73.289
50370,meta,uribe,666.5,2.903,-74.228
50001,meta,villavicencio,411.19,4.115,-73.577
50711,meta,vistahermosa,292.5,3.16,-73.752
52022,nariño,aldana,2961.0,0.857,-77.678
52079,nariño,barbacoas,234.0,1.447,-78.117
52240,nariño,chachaguí,1796.0,1.394,-77.291
52203,nariño,colón-génova,1755.0,1.662,-77.007
52210,nariño,contadero,2450.0,0.93,-77.491
52224,nariño,cuaspud-carlosama,2920.0,0.844,-77.686
52227,nariño,cumbal,1771.0,0.829,-77.885
52233,nariño,cumbitara,356.667,1.672,-77.505
52250,nariño,el-charco,50.0,2.442,-78.091
52256,nariño,el-rosario,600.0,1.633,-77.45
52323,nariño,gualmatán,2830.0,0.907,-77.581
52356,nariño,ipiales,2582.0,0.814,-77.662
52378,nariño,la-cruz,2248.0,1.595,-76.834
52480,nariño,la-unión-nariño,1745.0,1.583,-77.133
52418,nariño,los-andes-sotomayor,480.0,1.574,-77.442
52427,nariño,magüí-payán,80.0,2.079,-78.113
52435,nariño,mallama-piedrancha,1830.0,1.142,-77.929
52480,nariño,mosquera-nariño,10.0,2.505,-78.455
52001,nariño,pasto,2557.8,1.093,-77.225
52540,nariño,policarpa,475.0,1.594,-77.429
52560,nariño,potosí,1388.0,0.816,-77.559
52573,nariño,puerres,2457.0,0.836,-77.376
52480,nariño,ricaurte-nariño,1210.0,1.215,-77.997
52621,nariño,roberto-payán-san-josé,40.0,2.19,-78.416
52786,nariño,taminango,1080.0,1.569,-77.325
52835,nariño,tumaco,8.2,1.645,-78.699
52838,nariño,túquerres,3120.0,1.071,-77.637
54051,norte-de-santander,arboledas,1337.5,7.614,-72.864
54099,norte-de-santander,bochalema,770.0,7.699,-72.601
54172,norte-de-santander,chinácota,1040.0,7.65,-72.598
54174,norte-de-santander,chitagá,2865.0,7.077,-72.673
54206,norte-de-santander,convención,1215.0,8.605,-73.334
54223,norte-de-santander,cucutilla,1325.0,7.53,-72.769
54128,norte-de-santander,cáchira,935.667,7.718,-73.105
54125,norte-de-santander,cácota,2645.0,7.27,-72.644
54001,norte-de-santander,cúcuta,180.564,8.11,-72.503
54239,norte-de-santander,durania,255.0,7.833,-72.633
54245,norte-de-santander,el-carmen-norte-de-santander,1500.0,8.717,-73.467
54250,norte-de-santander,el-tarra,92.5,8.776,-72.966
54261,norte-de-santander,el-zulia,154.0,8.067,-72.59
54313,norte-de-santander,gramalote,120.0,7.892,-72.799
54347,norte-de-santander,herrán,1902.5,7.447,-72.455
54385,norte-de-santander,la-esperanza,185.5,7.648,-73.447
54398,norte-de-santander,la-playa,1506.667,8.233,-73.227
54377,norte-de-santander,labateca,1335.5,7.263,-72.473
54418,norte-de-santander,lourdes,1200.0,7.95,-72.832
54480,norte-de-santander,mutiscua,2762.5,7.308,-72.734
54498,norte-de-santander,ocaña,1368.571,8.256,-73.361
54518,norte-de-santander,pamplona,2351.0,7.367,-72.656
54520,norte-de-santander,pamplonita,1107.0,7.517,-72.644
54553,norte-de-santander,puerto-santander,50.0,8.359,-72.41
54599,norte-de-santander,ragonvalia,1690.0,7.571,-72.517
54660,norte-de-santander,salazar,860.0,7.779,-72.817
54670,norte-de-santander,san-calixto,1650.0,8.408,-73.214
54673,norte-de-santander,san-cayetano-norte-de-santander,260.25,7.905,-72.623
54680,norte-de-santander,santiago-norte-de-santander,411.0,7.864,-72.716
54720,norte-de-santander,sardinata,282.571,8.256,-72.839
54743,norte-de-santander,silos,2852.0,7.212,-72.747
54800,norte-de-santander,teorama,710.0,8.464,-73.279
54810,norte-de-santander,tibú,74.75,8.578,-72.711
54820,norte-de-santander,toledo-norte-de-santander,852.857,7.08,-72.335
54871,norte-de-santander,villa-caro,1865.0,7.97,-72.999
54874,norte-de-santander,villa-del-rosario,490.667,7.787,-72.484
54003,norte-de-santander,ábrego,1515.741,8.053,-73.2
86001,putumayo,mocoa,1174.333,1.126,-76.739
86568,putumayo,puerto-asís,238.429,0.473,-76.47
86569,putumayo,puerto-caicedo,300.0,0.686,-76.605
86573,putumayo,puerto-leguízamo,165.692,-0.09,-74.989
86755,putumayo,san-francisco-putumayo,2100.0,1.134,-76.93
86757,putumayo,san-miguel-la-dorada,500.0,0.279,-76.927
86760,putumayo,santiago-putumayo,1340.0,1.12,-77.001
86749,putumayo,sibundoy,2130.0,1.117,-76.95
86865,putumayo,valle-del-guamuez-la-hormiga,500.0,0.48,-76.958
86885,putumayo,villagarzón,344.0,0.843,-76.572
63001,quindío,armenia-quindío,1357.0,4.493,-75.729
63130,quindío,calarcá,2255.0,4.528,-75.596
63302,quindío,génova,1524.0,4.217,-75.767
63548,quindío,pijao,1159.0,4.335,-75.734
63690,quindío,salento,26.0,4.636,-75.569
66045,risaralda,apía,1115.0,5.052,-75.947
66088,risaralda,belén-de-umbría,1678.5,5.187,-75.883
66170,risaralda,dosquebradas,1400.0,4.85,-75.683
66318,risaralda,guática,1627.25,5.286,-75.819
66400,risaralda,la-virginia,923.5,4.9,-75.883
66440,risaralda,marsella,1549.2,4.938,-75.743
66456,risaralda,mistrató,1483.0,5.294,-75.873
66001,risaralda,pereira,1434.524,4.78,-75.696
66572,risaralda,pueblo-rico,764.5,5.203,-76.006
66594,risaralda,quinchía,791.0,5.274,-75.666
66682,risaralda,santa-rosa-de-cabal,2403.833,4.803,-75.556
66687,risaralda,santuario-risaralda,2775.0,5.102,-76.014
68020,santander,albania-santander,1807.5,5.771,-73.915
68051,santander,aratoca,2860.0,6.8,-73.05
68079,santander,barichara,850.0,6.681,-73.235
68081,santander,barrancabermeja,97.846,7.044,-73.836
68092,santander,betulia-santander,192.0,7.039,-73.341
68101,santander,bolivar-santander,851.667,6.079,-73.996
68001,santander,bucaramanga,727.286,7.124,-73.124
68121,santander,cabrera-santander,612.5,6.553,-73.28
68132,santander,california,3100.0,7.317,-72.867
68147,santander,capitanejo,1204.25,6.517,-72.69
68152,santander,carcasí,224.0,6.628,-72.63
68160,santander,cepitá,607.5,6.752,-72.979
68162,santander,cerrito,2894.75,6.867,-72.695
68167,santander,charalá,1332.5,6.277,-73.144
68169,santander,charta,150.0,7.217,-73.05
68176,santander,chima-santander,526.667,6.359,-73.368
68190,santander,cimitarra,146.583,6.432,-74.119
68207,santander,concepción-santander,3168.0,6.81,-72.556
68209,santander,confines,1523.0,6.355,-73.24
68217,santander,coromoro,2084.0,6.234,-72.985
68229,santander,curití,1587.0,6.605,-73.063
54245,santander,el-carmen-santander,494.0,6.734,-73.563
68245,santander,el-guacamayo,1800.0,6.324,-73.467
68255,santander,el-playón,500.0,7.465,-73.201
68264,santander,encino,1814.0,6.138,-73.098
68276,santander,floridablanca,1013.167,7.081,-73.07
68307,santander,girón,618.0,7.04,-73.25
68318,santander,guaca,3050.333,6.956,-72.828
68320,santander,guadalupe-santander,1400.0,6.237,-73.415
68324,santander,guavatá,218.0,5.961,-73.702
68298,santander,gámbita,2026.2,5.905,-73.364
68368,santander,jesús-maría,2255.0,5.872,-73.848
68385,santander,landázuri,935.0,6.221,-73.809
68406,santander,lebrija,701.667,7.225,-73.279
68418,santander,los-santos,1460.0,6.759,-73.093
68425,santander,macaravita,1856.0,6.494,-72.581
68444,santander,matanza,1378.667,7.316,-73.044
68464,santander,mogotes,1679.75,6.485,-72.979
68468,santander,molagavita,2150.0,6.672,-72.811
68432,santander,málaga,2198.5,6.703,-72.732
68498,santander,ocamonte,1400.0,6.35,-73.117
68500,santander,oiba,1400.0,6.256,-73.318
68502,santander,onzaga,1560.0,6.273,-72.811
68522,santander,palmar,940.0,6.55,-73.288
68547,santander,piedecuesta,156.4,6.972,-73.039
68549,santander,pinchote,975.0,6.532,-73.199
68573,santander,puerto-parra,117.333,6.698,-74.076
68575,santander,puerto-wilches,82.053,7.578,-73.825
68533,santander,páramo,1277.0,6.431,-73.162
68615,santander,rionegro-santander,503.125,7.443,-73.396
68655,santander,sabana-de-torres,110.286,7.477,-73.534
68669,santander,san-andrés-santander,1702.0,6.83,-72.844
68679,santander,san-gil,1222.0,6.541,-73.117
68682,santander,san-joaquín,20.0,6.426,-72.874
68689,santander,san-vicente-de-chucurí,315.0,6.934,-73.509
68705,santander,santa-bárbara-santander,250.0,6.94,-72.932
68745,santander,simacota,126.667,6.617,-73.69
68755,santander,socorro,1115.333,6.451,-73.274
68770,santander,suaita,918.4,6.113,-73.42
68773,santander,sucre-santander,2270.0,5.92,-73.796
68780,santander,suratá,1754.4,7.406,-72.994
68820,santander,tona,2399.375,7.16,-72.953
68855,santander,valle-de-san-josé,1261.5,6.46,-73.108
68867,santander,vetas,3220.0,7.309,-72.878
68861,santander,vélez,1177.5,6.107,-73.745
68895,santander,zapatoca,1475.0,6.767,-73.271
70110,sucre,buenavista-sucre,100.0,9.359,-74.941
70124,sucre,caimito,20.0,8.791,-75.124
70230,sucre,chalán,100.0,9.539,-75.322
70204,sucre,colosó,130.0,9.501,-75.374
70215,sucre,corozal,122.0,9.271,-75.252
70235,sucre,galeras,47.5,9.173,-74.983
70265,sucre,guaranda,45.0,8.333,-74.736
70418,sucre,los-palmitos,183.333,9.421,-75.139
70429,sucre,majagual,44.2,8.586,-74.662
70473,sucre,morroa,168.0,9.357,-75.289
70508,sucre,ovejas,232.5,9.533,-75.175
70670,sucre,sampués,160.0,9.316,-75.388
70678,sucre,san-benito-abad,33.75,9.051,-75.033
70702,sucre,san-juan-de-betulia-betulia,165.0,9.327,-75.243
70708,sucre,san-marcos,37.75,8.619,-75.168
70713,sucre,san-onofre,27.125,9.847,-75.478
70001,sucre,sincelejo,115.667,9.284,-75.434
70742,sucre,sincé,60.0,9.177,-75.022
70771,sucre,sucre-sucre,27.5,8.872,-74.718
70820,sucre,tolú,7.667,9.463,-75.59
70823,sucre,tolú-viejo,59.75,9.44,-75.437
73024,tolima,alpujarra,1058.0,3.416,-74.869
73026,tolima,alvarado,439.0,4.568,-74.951
73030,tolima,ambalema,415.538,4.812,-74.814
73043,tolima,anzoátegui,3224.5,4.654,-75.209
73055,tolima,armero-guayabal,749.143,5.0,-74.887
73067,tolima,ataco,900.182,3.444,-75.546
73124,tolima,cajamarca,1920.8,4.395,-75.496
73148,tolima,carmen-de-apicalá,321.0,4.161,-74.713
73168,tolima,chaparral,546.2,3.73,-75.506
73217,tolima,coyaima,411.833,3.919,-75.183
73226,tolima,cunday,479.167,3.976,-74.714
73236,tolima,dolores,1556.0,3.602,-74.811
73268,tolima,espinal,387.0,4.197,-74.958
73275,tolima,flandes,287.333,4.281,-74.805
73283,tolima,fresno,1670.0,5.158,-75.049
73319,tolima,guamo,321.25,4.029,-74.943
73349,tolima,honda,727.8,5.222,-74.758
73001,tolima,ibagué,1571.794,4.474,-75.264
73352,tolima,icononzo,750.0,4.192,-74.501
73408,tolima,lérida,656.6,4.841,-74.913
73411,tolima,líbano,1624.5,4.936,-75.08
73443,tolima,mariquita,948.889,5.219,-74.895
73449,tolima,melgar,575.6,4.209,-74.62
73461,tolima,murillo,2281.333,4.876,-75.214
73483,tolima,natagaima,375.6,3.521,-75.117
73504,tolima,ortega,1166.2,3.945,-75.237
73547,tolima,piedras,384.0,4.535,-74.881
73555,tolima,planadas,1402.5,3.117,-75.697
73563,tolima,prado,372.111,3.736,-74.873
73585,tolima,purificación,338.429,3.867,-74.889
73616,tolima,rioblanco,1285.4,3.47,-75.694
73622,tolima,roncesvalles,2728.75,4.057,-75.594
73624,tolima,rovira,812.111,4.175,-75.281
73671,tolima,saldaña,1387.167,3.91,-75.049
73675,tolima,san-antonio,1474.0,3.912,-75.486
73678,tolima,san-luis-tolima,589.667,4.197,-75.107
73686,tolima,santa-isabel,2470.385,4.726,-75.213
73770,tolima,suárez-tolima,1518.0,4.039,-74.821
73854,tolima,valle-de-san-juan,624.0,4.216,-75.127
73861,tolima,venadillo,437.75,4.728,-74.937
73870,tolima,villahermosa,1802.6,4.952,-75.166
73873,tolima,villarrica,1041.75,3.876,-74.639
76020,valle-del-cauca,alcalá,1261.0,4.676,-75.786
76036,valle-del-cauca,andalucía,1314.0,4.087,-76.101
76041,valle-del-cauca,ansermanuevo,1465.5,4.785,-76.065
19100,valle-del-cauca,bolívar-valle-del-cauca,954.5,4.359,-76.247
76109,valle-del-cauca,buenaventura,32.2,3.881,-77.115
76111,valle-del-cauca,buga,813.333,3.881,-76.189
76113,valle-del-cauca,bugalagrande,912.0,4.187,-76.07
76122,valle-del-cauca,caicedonia,137.5,4.371,-75.855
76001,valle-del-cauca,cali,1034.625,3.423,-76.558
76130,valle-del-cauca,candelaria-valle-del-cauca,413.8,3.376,-76.375
76147,valle-del-cauca,cartago,941.5,4.689,-75.943
76233,valle-del-cauca,dagua,1164.0,3.647,-76.728
76248,valle-del-cauca,el-cerrito,2611.0,3.699,-76.13
76250,valle-del-cauca,el-dovio,1196.0,4.496,-76.352
76243,valle-del-cauca,el-águila,1341.0,4.971,-76.039
76275,valle-del-cauca,florida,1008.0,3.334,-76.223
76306,valle-del-cauca,ginebra,1826.0,3.773,-76.166
76318,valle-del-cauca,guacarí,990.0,3.77,-76.332
76364,valle-del-cauca,jamundí,570.8,3.236,-76.592
76377,valle-del-cauca,la-cumbre,1161.75,3.679,-76.571
76400,valle-del-cauca,la-unión-valle-del-cauca,923.5,4.563,-76.059
76403,valle-del-cauca,la-victoria-valle-del-cauca,949.0,4.516,-76.041
76497,valle-del-cauca,obando,986.0,4.589,-75.966
76520,valle-del-cauca,palmira,911.444,3.556,-76.313
76563,valle-del-cauca,pradera,155.0,3.46,-76.25
76616,valle-del-cauca,riofrío,936.0,4.133,-76.267
76622,valle-del-cauca,roldanillo,924.5,4.447,-76.105
76670,valle-del-cauca,san-pedro-valle-del-cauca,157.0,4.015,-76.158
76736,valle-del-cauca,sevilla,2279.0,4.121,-75.819
76823,valle-del-cauca,toro,933.8,4.62,-76.054
76834,valle-del-cauca,tuluá,1149.167,4.053,-76.093
76863,valle-del-cauca,versalles,189.0,4.573,-76.202
76869,valle-del-cauca,vijes,974.0,3.699,-76.43
76890,valle-del-cauca,yotoco,962.0,3.891,-76.351
76895,valle-del-cauca,zarzal,775.5,4.354,-76.023
97001,vaupés,mitú,170.0,0.959,-69.928
99773,vichada,cumaribo,119.267,4.446,-69.2
99524,vichada,la-primavera,85.455,5.893,-69.735
99001,vichada,puerto-carreño,69.0,5.942,-67.999
99624,vichada,santa-rosalía,108.0,5.283,-70.726
