departamento,cod_departamento,municipio,cod_municipio,altitud,latitud,longitud
amazonas,91,la_chorrera,91405,146.66666666666666,-0.9960185166666667,-73.25178703666667
amazonas,91,la_pedrera,91407,104.8,-1.380961112,-69.805616666
amazonas,91,leticia,91001,92.25,-4.2030277775,-69.9449375
amazonas,91,miriti-parana,,115.0,-1.365,-70.715
amazonas,91,puerto_alegria,91530,135.0,-0.9558703700000001,-74.02470370333333
amazonas,91,puerto_arica,91536,115.0,-2.14688889,-71.75222222
amazonas,91,puerto_narino,91540,158.0,-3.78030556,-70.36263889
amazonas,91,santander,,125.85714285714286,-0.8423809528571429,-71.95858690428572
antioquia,05,abejorral,05002,2450.0,5.78597222,-75.43041667
antioquia,05,abriaqui,05004,1920.0,6.6425,-76.075
antioquia,05,alejandria,05021,1500.5,6.3860416650000005,-75.0975416675
antioquia,05,amalfi,05031,1285.0,6.8907916675,-75.0377638875
antioquia,05,andes,05034,1219.3333333333333,5.645435183333333,-75.88529629333333
antioquia,05,angostura,05038,1902.5,6.87645139,-75.357277775
antioquia,05,anori,05040,768.2222222222222,7.226413578888889,-75.09586111222222
antioquia,05,anza,05044,488.75,6.35495139,-75.8481458325
antioquia,05,apartado,05045,39.857142857142854,7.8509127,-76.64889285714285
antioquia,05,arboletes,05051,4.5,8.75333333,-76.438888885
antioquia,05,armenia,05059,1800.0,6.15797222,-75.77152778
antioquia,05,bello,05088,1831.0,6.34972222,-75.57086111
antioquia,05,belmira,05086,2420.0,6.69427778,-75.65345833
antioquia,05,betania,05091,1550.0,5.7275,-75.979430555
antioquia,05,betulia,05093,395.0,6.214124999999999,-75.90309722
antioquia,05,briceno,05107,949.0,7.085972225,-75.5975
antioquia,05,buritica,05113,1024.0,6.798083334999999,-75.889819445
antioquia,05,caceres,05120,118.54545454545455,7.696398990909091,-75.31982323181818
antioquia,05,caicedo,05125,550.0,6.40597222,-75.98127778
antioquia,05,caldas,05129,2041.0,6.0494537033333335,-75.61377778
antioquia,05,campamento,05134,480.0,7.20305556,-75.31891667
antioquia,05,canasgordas,05138,1247.0,6.7540138899999995,-76.0315
antioquia,05,caramanta,05145,1140.3333333333333,5.560388886666666,-75.63599074333332
antioquia,05,carepa,05147,31.833333333333332,7.776569445,-76.68725000166667
antioquia,05,carolina,05150,1770.0,6.7,-75.26666667
antioquia,05,caucasia,05154,57.125,7.97319097125,-75.089413195
antioquia,05,chigorodo,05172,41.714285714285715,7.659408731428571,-76.66431349428571
antioquia,05,ciudad_bolivar,05101,1344.0,5.851875,-76.00983333
antioquia,05,cocorna,05197,870.0,6.014013885000001,-75.14987500000001
antioquia,05,concepcion,05206,1280.0,6.39694444,-75.25916667
antioquia,05,concordia,05209,323.0,6.06938889,-75.89675
antioquia,05,dabeiba,05234,495.0,7.026097222500001,-76.304097225
antioquia,05,el_bagre,05250,278.42857142857144,7.631142857142857,-74.71676587285715
antioquia,05,el_carmen_de_viboral,05148,2235.0,6.01188889,-75.30947222
antioquia,05,entrerrios,05264,2770.5,6.597625,-75.58009722
antioquia,05,fredonia,05282,969.6666666666666,5.855648146666667,-75.68052777666666
antioquia,05,frontino,05284,1267.75,6.804006945,-76.209791665
antioquia,05,giraldo,05306,15.0,6.69375,-75.96736111000001
antioquia,05,girardota,05308,1600.0,6.36833333,-75.45361111
antioquia,05,gomez_plata,05310,1850.0,6.67780556,-75.21980556
antioquia,05,granada,05313,1905.0,6.140027775,-75.10054166500001
antioquia,05,guarne,05318,2400.0,6.28333333,-75.5
antioquia,05,heliconia,05347,255.0,6.17833333,-75.70508333
antioquia,05,ituango,05361,1351.6666666666667,7.257796296666666,-75.69475925666667
antioquia,05,jardin,05364,912.5,5.585527775,-75.816944445
antioquia,05,jerico,05368,1726.5,5.80151389,-75.756569445
antioquia,05,la_ceja,05376,2160.0,6.03333333,-75.4
antioquia,05,la_pintada,05390,860.0,5.78333333,-75.61666667
antioquia,05,la_union,05400,2469.0,5.94234722,-75.35001389
antioquia,05,liborina,05411,1250.0,6.72088889,-75.75805556
antioquia,05,marinilla,05440,2125.0,6.171875,-75.332930555
antioquia,05,medellin,05001,1956.8,6.276318613,-75.612068611
antioquia,05,montebello,05467,560.0,5.95083333,-75.53683333
antioquia,05,murindo,05475,23.0,7.0,-76.75
antioquia,05,mutata,05480,130.8,7.355466666,-76.55473889
antioquia,05,nechi,05495,81.42857142857143,8.052158731428571,-74.77899999857142
antioquia,05,necocli,05490,33.0,8.485907410000001,-76.66202777666666
antioquia,05,olaya,05501,575.0,6.62872222,-75.81088889
antioquia,05,penol,05541,247.0,6.21422222,-75.24130556
antioquia,05,peque,05543,2440.0,7.03333333,-75.93333333
antioquia,05,pueblorrico,05576,2100.0,5.79105556,-75.83880556
antioquia,05,puerto_berrio,05579,217.9,6.546258333999999,-74.433380556
antioquia,05,puerto_nare,05585,1309.3333333333333,6.2120740733333335,-74.62151389
antioquia,05,puerto_triunfo,05591,144.5,5.937666665,-74.600638885
antioquia,05,remedios,05604,508.25,7.0616180575000005,-74.72034027999999
antioquia,05,rionegro,05615,1112.4,6.15355,-75.378972224
antioquia,05,sabanalarga,05628,1055.0,6.889666665,-75.790736115
antioquia,05,salgar,05642,2100.0,5.93491667,-75.86116667
antioquia,05,san_andres,,1895.0,6.92847222,-75.6585763875
antioquia,05,san_carlos,05649,792.0,6.197092592222223,-74.96115123333333
antioquia,05,san_francisco,05652,1325.0,5.96380556,-75.10069444
antioquia,05,san_jeronimo,05656,943.3333333333334,6.4409814800000005,-75.73024074333334
antioquia,05,san_jose_de_la_montana,05658,2373.0,6.88047222,-75.67247222
antioquia,05,san_juan_de_uraba,05659,3.0,8.735944445000001,-76.50819444499999
antioquia,05,san_luis,05660,980.0,5.99836111,-74.93825
antioquia,05,san_pedro_de_uraba,05665,137.0,8.27780556,-76.39130556
antioquia,05,san_rafael,05667,525.3333333333334,6.344074073333334,-75.00648148
antioquia,05,san_roque,05670,1193.0,6.4928055533333335,-74.90628703666665
antioquia,05,san_vicente,,1965.0,6.31194444,-75.25355556
antioquia,05,santa_barbara,05679,1680.0,5.85958333,-75.55627778
antioquia,05,santa_fe_de_antioquia,05042,767.6,6.485372222,-75.85665555400001
antioquia,05,santa_rosa_de_osos,05686,2265.0,6.6524305550000005,-75.319375
antioquia,05,santo_domingo,05690,1916.6666666666667,6.491787040000001,-75.14796296333333
antioquia,05,segovia,05736,828.25,7.2340277775,-74.7353194425
antioquia,05,sonson,05756,1516.4285714285713,5.7317857142857145,-75.00055952285713
antioquia,05,sopetran,05761,504.6666666666667,6.522222223333333,-75.78888889
antioquia,05,tamesis,05789,879.0,5.733666664999999,-75.662125
antioquia,05,taraza,05790,220.0,7.48835416625,-75.37429514125
antioquia,05,titiribi,05809,1032.5,6.044805555,-75.80562499999999
antioquia,05,turbo,05837,44.46666666666667,7.951970370666667,-76.678338888
antioquia,05,uramita,05842,650.0,6.87388889,-76.14958333
antioquia,05,urrao,05847,1721.142857142857,6.327341268571429,-76.14615079428572
antioquia,05,valdivia,05854,86.66666666666667,7.305564816666667,-75.35437962666667
antioquia,05,valparaiso,05856,505.0,5.71666667,-75.6
antioquia,05,vegachi,05858,1023.3333333333334,6.795648146666667,-74.79325926
antioquia,05,venecia,05861,1250.0,5.976666665,-75.828333335
antioquia,05,vigia_del_fuerte,05873,19.333333333333332,6.441111113333332,-76.76369444666666
antioquia,05,yali,05885,970.0,6.63963889,-74.87544444
antioquia,05,yarumal,05887,2484.25,6.926743055,-75.4220833325
antioquia,05,yolombo,05890,796.6,6.6540166659999995,-75.03812778
antioquia,05,yondo,05893,107.375,6.87739235875,-74.17159722125
antioquia,05,zaragoza,05895,145.0,7.462305556,-74.860394444
arauca,81,arauca,81001,119.44444444444444,7.036747223333332,-70.60676203999999
arauca,81,arauquita,81065,136.42857142857142,6.998293651428571,-71.26571428571428
arauca,81,cravo_norte,81220,81.5,6.168708335,-69.91654166500001
arauca,81,saravena,81736,803.4285714285714,6.85147619,-71.93306587571429
arauca,81,tame,81794,610.8,6.31901111,-71.92229999999999
archipielago_de_san_andres_providencia_y_santa_catalina,88,san_andres,88001,10.666666666666666,12.90458395,-81.51058888666665
archipielago_de_san_andres_providencia_y_santa_catalina,88,san_andres_y_providencia,,27.875,13.351795138750001,-81.37898263875
atlantico,08,barranquilla,08001,5.6,11.022061112,-74.80312222
atlantico,08,campo_de_la_cruz,08137,4.0,10.37663889,-74.88841667
atlantico,08,candelaria,08141,24.5,10.488416664999999,-74.88883333499999
atlantico,08,juan_de_acosta,08372,20.0,10.83361111,-75.03972222
atlantico,08,luruaco,08421,20.0,10.43944444,-75.10833333
atlantico,08,manati,08436,12.5,10.4550625,-75.001159725
atlantico,08,piojo,08549,80.0,10.72188889,-75.14011111
atlantico,08,polonuevo,08558,80.0,10.779,-74.85791667
atlantico,08,ponedera,08560,5.0,10.50788889,-74.82227778
atlantico,08,puerto_colombia,08573,5.0,10.98833333,-74.96966667
atlantico,08,repelon,08606,10.25,10.500131945,-75.12271874875
atlantico,08,sabanalarga,08638,93.33333333333333,10.603722223333333,-74.96355555666666
atlantico,08,santa_lucia,08675,10.4,10.330561668,-74.975978334
atlantico,08,soledad,08758,17.0,10.913138889999999,-74.77301851666667
atlantico,08,suan,08770,8.0,10.282037036666667,-74.90936111
atlantico,08,tubara,08832,200.0,10.95511111,-74.995
bogota,11,bogota,11001,2621.0333333333333,4.602839814666667,-74.109627917
bolivar,13,achi,13006,24.857142857142858,8.56515873,-74.56258730142858
bolivar,13,altos_del_rosario,13030,24.0,8.8125,-74.16541667
bolivar,13,arenal,13042,142.0,8.413055555,-74.01222222
bolivar,13,arjona,13052,17.0,10.16806111,-75.323377778
bolivar,13,arroyohondo,13062,7.0,10.23472222,-74.96897222
bolivar,13,barranco_de_loba,13074,21.0,8.873743054999998,-74.2599722225
bolivar,13,calamar,13140,8.2,10.248673888,-74.945278334
bolivar,13,cantagallo,13160,121.75,7.2666666675,-74.0375000025
bolivar,13,cartagena_de_indias,13001,4.818181818181818,10.304955303636364,-75.57494166818182
bolivar,13,cicuco,13188,17.666666666666668,9.274351853333334,-74.68861111
bolivar,13,cordoba,13212,16.666666666666668,9.505175926666666,-74.79207407666667
bolivar,13,el_carmen_de_bolivar,13244,51.285714285714285,9.847222222857143,-75.29103174714285
bolivar,13,el_guamo,13248,75.0,10.06444444,-74.85222222
bolivar,13,el_penon,13268,28.0,8.98972222,-73.94722222
bolivar,13,hatillo_de_loba,13300,20.0,9.00416667,-74.40583333
bolivar,13,magangue,13430,23.416666666666668,9.137615739166668,-74.71917361166668
bolivar,13,mahates,13433,10.88888888888889,10.194772530000002,-75.21018240666666
bolivar,13,margarita,13440,23.0,9.03026389,-74.209027775
bolivar,13,maria_la_baja,13442,21.64,9.947452222399999,-75.3148399996
bolivar,13,montecristo,13458,107.5,8.258333332500001,-74.479166665
bolivar,13,morales,13473,75.5,8.30833333,-73.858333335
bolivar,13,pinillos,13549,20.615384615384617,8.897320512307692,-74.40218162384616
bolivar,13,regidor,13580,35.0,8.66633333,-73.82080556
bolivar,13,rioviejo,,78.0,8.544722219999999,-73.92231481333333
bolivar,13,san_fernando,13650,32.5,9.097361110000001,-74.36138889
bolivar,13,san_jacinto,13654,75.0,9.87861111,-75.232916665
bolivar,13,san_jacinto_del_cauca,13655,204.22222222222223,8.283895062222221,-74.64609567777778
bolivar,13,san_juan_nepomuceno,13657,72.5,9.9477430575,-75.1174930525
bolivar,13,san_martin_de_loba,13667,40.0,8.82277778,-73.96583333
bolivar,13,san_pablo,13670,160.16666666666666,7.551537038333334,-73.95600925833334
bolivar,13,santa_catalina,13673,20.0,10.79416667,-75.26055556
bolivar,13,santa_cruz_de_mompox,13468,18.46153846153846,9.096893161538462,-74.62475427461538
bolivar,13,santa_rosa_del_sur,13688,507.5,7.94184028,-74.13753472249999
bolivar,13,simiti,13744,65.66666666666667,8.008981480000001,-73.90574074333334
bolivar,13,talaigua_nuevo,13780,15.0,9.38333333,-74.7
bolivar,13,zambrano,13894,33.0,9.733999998,-74.87161111200001
boyaca,15,almeida,15022,1834.8,4.950072224,-73.387644444
boyaca,15,aquitania,15047,1437.2777777777778,5.502885801666667,-72.88436882666666
boyaca,15,arcabuco,15051,2600.0,5.76058333,-73.44413889
boyaca,15,belen,15087,2500.0,6.01402778,-72.80605556
boyaca,15,berbeo,15090,1370.0,5.18372222,-73.08672222
boyaca,15,beteitiva,15092,2575.0,5.90727778,-72.81061111
boyaca,15,boavita,15097,1123.3333333333333,6.366759256666666,-72.60686111333332
boyaca,15,buenavista,15109,2200.0,5.51491667,-73.94311111
boyaca,15,campohermoso,15135,1335.1666666666667,5.025164351666667,-73.14311805666667
boyaca,15,cerinza,15162,2643.0,5.96225,-72.9385
boyaca,15,chinavita,15172,1420.6666666666667,5.201222223333333,-73.35418518666667
boyaca,15,chiquinquira,15176,2593.0,5.58333333,-73.35
boyaca,15,chiquiza,15232,2982.5,5.645,-73.458555555
boyaca,15,chiscas,15180,2415.0,6.541430555,-72.50236111000001
boyaca,15,chita,15183,2888.0,6.18833333,-72.46633333
boyaca,15,chivata,15187,2900.0,5.55883333,-73.28166667
boyaca,15,chivor,15236,1610.0,4.889964813333333,-73.35321759333334
boyaca,15,combita,15204,2820.0,5.62891667,-73.324
boyaca,15,coper,15212,190.0,5.47466667,-74.04591667
boyaca,15,corrales,15215,2400.0,5.83333333,-72.86666667
boyaca,15,covarachia,15218,2400.0,6.51475,-72.73294444
boyaca,15,cubara,15223,374.0,7.03455556,-72.15261111
boyaca,15,cuitiva,15226,737.25,5.5845756925000005,-72.94630555500001
boyaca,15,duitama,15238,2694.3333333333335,5.833907406666667,-73.0623425925
boyaca,15,el_cocuy,15244,2969.0,6.397185183333334,-72.43662962666667
boyaca,15,el_espino,15248,3035.0,6.486694445,-72.47633333499999
boyaca,15,firavitoba,15272,2489.0,5.672430555,-72.98394444499999
boyaca,15,gachantiva,15293,2375.0,5.75080556,-73.54891667
boyaca,15,gameza,15296,3200.0,5.78236111,-72.76980556
boyaca,15,garagoa,15299,1604.0,5.067330556666667,-73.33786574
boyaca,15,guayata,15325,1580.0,4.969805556666667,-73.48865740666666
boyaca,15,guican,,3643.0,6.469920634285714,-72.37431746
boyaca,15,iza,15362,2470.0,5.6155,-72.97627778
boyaca,15,jenesano,15367,1184.0,5.400833335,-73.36415278
boyaca,15,jerico,15368,2962.0,6.14147222,-72.59333333
boyaca,15,la_capilla,15380,1917.0,5.09919444,-73.436
boyaca,15,la_uvita,15403,2950.0,6.24811111,-72.54888889
boyaca,15,labranzagrande,15377,1125.0,5.56691667,-72.58355556
boyaca,15,macanal,15425,1581.6666666666667,4.968527778333333,-73.31672685166667
boyaca,15,maripi,15442,1390.0,5.55,-74.01666667
boyaca,15,miraflores,15455,1170.3333333333333,5.1855555566666665,-73.12876852000001
boyaca,15,mongua,15464,2900.0,5.75838889,-72.7945
boyaca,15,mongui,15466,1500.0,5.720718059999999,-72.84876389
boyaca,15,moniquira,15469,1050.8,5.864938888,-73.570700002
boyaca,15,motavita,15476,3195.0,5.63438111,-73.38647056
boyaca,15,muzo,15480,850.0,5.53480556,-74.10122222
boyaca,15,nobsa,15491,2515.0,5.7775,-72.91727778
boyaca,15,nuevo_colon,15494,2438.0,5.35269444,-73.45377778
boyaca,15,oicata,15500,2645.0,5.60633333,-73.32336111
boyaca,15,otanche,15507,1100.0,5.66172222,-74.18461111
boyaca,15,pachavita,15511,2160.0,5.13925,-73.39563889
boyaca,15,paez,15514,1175.0,5.092583333333334,-73.04579629666667
boyaca,15,paipa,15516,2508.1428571428573,5.795311112857143,-73.12777019857143
boyaca,15,pajarito,15518,1231.8,5.354777776000001,-72.708399998
boyaca,15,pauna,15531,969.0,5.64962037,-74.00646296333333
boyaca,15,paz_de_rio,15537,2495.0,5.991805555,-72.76611111
boyaca,15,pesca,15542,2609.3333333333335,5.552223983333334,-73.05785666666667
boyaca,15,pisva,,1482.0,5.72055556,-72.48847222
boyaca,15,puerto_boyaca,15572,257.25,5.9366875,-74.53919653
boyaca,15,quipama,15580,1250.0,5.52083333,-74.18241667
boyaca,15,ramiriqui,15599,1604.0,5.401694443333334,-73.34968518666666
boyaca,15,raquira,15600,2290.0,5.53877778,-73.63136111
boyaca,15,rondon,15621,2140.0,5.354208335,-73.21013889
boyaca,15,saboya,15632,2550.0,5.69622222,-73.759
boyaca,15,sachica,15638,2560.0,5.5885,-73.51255556
boyaca,15,samaca,15646,2820.5,5.462827430625,-73.517508679375
boyaca,15,san_luis_de_gaceno,15667,400.0,4.81977778,-73.16986111
boyaca,15,san_mateo,15673,1100.0,6.45,-72.61666667
boyaca,15,san_miguel_de_sema,15676,2550.0,5.55,-73.73333333
boyaca,15,san_pablo_de_borbur,15681,751.0,5.648888889999999,-74.06889815
boyaca,15,santa_maria,15690,752.8888888888889,4.85612963,-73.24788271555556
boyaca,15,santa_rosa_de_viterbo,15693,2595.0,5.842694445,-72.984555555
boyaca,15,santa_sofia,15696,2520.0,5.715466668,-73.63045555400001
boyaca,15,santana,15686,1520.0,6.07694444,-73.46916667
boyaca,15,sativanorte,15720,2917.0,6.1282499999999995,-72.737916665
boyaca,15,siachoque,15740,2720.0,5.50609639,-73.25105306
boyaca,15,socha,15757,1845.0,5.980222223333333,-72.79147222333333
boyaca,15,socota,15755,2787.0,6.035694443333334,-72.59931481333332
boyaca,15,sogamoso,15759,2751.0,5.700797222,-72.916195835
boyaca,15,somondoco,15761,2280.0,4.956648146666667,-73.43415740666667
boyaca,15,soraca,15764,2873.0,5.51891667,-73.31072222
boyaca,15,sotaquira,15763,2639.0,5.746794443333333,-73.20812250333334
boyaca,15,susacon,15774,2550.0,6.23175,-72.68933333
boyaca,15,sutamarchan,15776,2500.0,5.61838889,-73.61286111
boyaca,15,sutatenza,15778,1930.0,5.02227778,-73.44916667
boyaca,15,tasco,15790,2486.0,5.86035722,-72.78479139
boyaca,15,tenza,15798,1571.6,5.077988886,-73.41871667000001
boyaca,15,tibana,15804,2115.0,5.31527778,-73.39594444
boyaca,15,tibasosa,15806,2495.0,5.779527775,-73.00051389
boyaca,15,toca,15814,2764.0,5.591043211111111,-73.18510185222222
boyaca,15,tota,15822,32.0,5.49194444,-72.9385
boyaca,15,tunja,15001,2690.0,5.5430775,-73.36081306
boyaca,15,turmeque,15835,2400.0,5.31775,-73.49636111
boyaca,15,tuta,15837,2585.3333333333335,5.683759258333333,-73.23627314833334
boyaca,15,tutaza,15839,2816.5,6.067166665,-72.86113889
boyaca,15,umbita,15842,2300.0,5.21911111,-73.44455556
boyaca,15,ventaquemada,15861,3014.0,5.387722225,-73.582833335
boyaca,15,villa_de_leiva,,2176.625,5.65405902625,-73.537461805
boyaca,15,zetaquira,15897,1578.0,5.28895833,-73.16961111
caldas,17,aguadas,17013,1664.75,5.6190034725,-75.47828819375
caldas,17,anserma,17042,853.0,5.23362963,-75.80777778
caldas,17,belalcazar,17088,947.0,4.98794444,-75.85891667
caldas,17,chinchina,17174,1500.0,5.01666667,-75.51666667
caldas,17,filadelfia,17272,801.0,5.27988889,-75.64836111
caldas,17,la_dorada,17380,197.33333333333334,5.448620366666667,-74.70872222333333
caldas,17,manizales,17001,1715.7777777777778,5.056382715555555,-75.46136419888889
caldas,17,manzanares,17433,1974.0,5.26561111,-75.14408333
caldas,17,marmato,17442,650.0,5.46666667,-75.61666667
caldas,17,marquetalia,17444,1550.0,5.29891667,-75.05747222
caldas,17,marulanda,17446,1700.0,5.27816667,-75.26713889
caldas,17,neira,17486,1030.2,5.217816666,-75.58262777600001
caldas,17,norcasia,17495,737.0,5.57447222,-74.89169444
caldas,17,pacora,17513,1301.0,5.5112222200000005,-75.510875
caldas,17,palestina,17524,899.3333333333334,5.106212963333333,-75.68539814666666
caldas,17,pensilvania,17541,216.0,5.37430556,-75.14916667
caldas,17,riosucio,17614,1846.5,5.4311944425,-75.7117291675
caldas,17,risaralda,17616,980.0,5.13333333,-75.71666667
caldas,17,salamina,17653,2388.75,5.3863888875,-75.379
caldas,17,samana,17662,1553.5,5.476388885,-75.02461111
caldas,17,supia,17777,1192.0,5.45291667,-75.65336111
caldas,17,victoria,17867,497.25,5.445708335,-74.8516527775
caldas,17,villamaria,17873,3586.235294117647,4.882674837058823,-75.40654411764706
caldas,17,viterbo,17877,128.0,5.06666667,-75.88333333
caqueta,18,cartagena_del_chaira,18150,200.0,-0.16638889,-73.09652778
caqueta,18,el_doncello,18247,374.3333333333333,1.6660555566666666,-75.22390741
caqueta,18,florencia,18001,423.0,1.6525462966666666,-75.61956172888888
caqueta,18,san_vicente_del_caguan,18753,485.0,2.087583335,-74.767402775
caqueta,18,solano,18756,168.28571428571428,-0.2536230157142857,-73.28622222285715
casanare,85,aguazul,85010,294.8333333333333,5.14411574,-72.51739351833334
casanare,85,chameza,85015,180.0,5.20438889,-72.90288889
casanare,85,hato_corozal,85125,354.2,6.024616668,-71.852705556
casanare,85,mani,85139,180.0,4.5609444450000005,-72.0594791675
casanare,85,monterrey,85162,598.0,4.93636528,-72.88299444500001
casanare,85,nunchia,85225,308.0,5.574805554999999,-72.14976389
casanare,85,orocue,85230,131.33333333333334,4.8373919744444445,-71.45271604888889
casanare,85,paz_de_ariporo,85250,264.6666666666667,5.759139350000001,-71.32574536833333
casanare,85,pore,85263,355.0,5.6892291675,-72.0211597225
casanare,85,sabanalarga,85300,350.3333333333333,4.778694443333333,-73.02605555333334
casanare,85,sacama,85315,120.0,6.08822222,-72.19063889
casanare,85,san_luis_de_palenque,85325,170.0,5.4205,-71.72805556
casanare,85,tamara,85400,233.5,5.782888885,-72.13488889
casanare,85,tauramena,85410,344.2,4.8995904459999995,-72.720479222
casanare,85,trinidad,85430,221.5,5.416708335,-71.66726389
casanare,85,villanueva,85440,255.0,4.65508333,-72.91733333
casanare,85,yopal,85001,386.25,5.404774305,-72.3711909725
cauca,19,argelia,19050,1750.0,2.31141667,-77.25877778
cauca,19,balboa,19075,1700.0,2.03277778,-77.22166667
cauca,19,buenos_aires,19110,751.375,2.999725695,-76.64929166625001
cauca,19,cajibio,19130,1267.5,2.6469743075,-76.66702083
cauca,19,caldono,19137,293.0,2.88052778,-76.4075
cauca,19,caloto,19142,270.6,3.06332222,-76.372222222
cauca,19,corinto,19212,1107.0,3.17911111,-76.24769444
cauca,19,el_tambo,19256,1326.6,2.5332263900000003,-76.960424999
cauca,19,guapi,19318,59.625,2.8117847225,-78.03035763875
cauca,19,inza,19355,2170.0,2.518885802222222,-76.11033024666666
cauca,19,jambalo,19364,30.0,2.73333333,-76.33333333
cauca,19,la_sierra,19392,1870.0,2.18025,-76.7585
cauca,19,lopez,,111.66666666666667,2.9765648149999997,-77.28798148166666
cauca,19,miranda,19455,944.5,3.2519791700000003,-76.24446528
cauca,19,morales,19473,1692.0,2.76941667,-76.62419444
cauca,19,paez,19517,1726.4545454545455,2.734782829090909,-76.00684090818181
cauca,19,patia,19532,715.625,2.192802085,-77.02896527749999
cauca,19,piendamo,19548,1830.0,2.6476851833333335,-76.52814814666667
cauca,19,popayan,19001,1537.6923076923076,2.471082200769231,-76.57160568384616
cauca,19,puerto_tejada,19573,983.0,3.26280556,-76.41447222
cauca,19,purace,19585,2422.0526315789475,2.3029087136842104,-76.3569628368421
cauca,19,rosas,19622,1625.0,2.247319445,-76.762805555
cauca,19,santa_rosa,19701,1332.5,1.635680555,-76.553416665
cauca,19,santander_de_quilichao,19698,636.6666666666666,2.9911944444444445,-76.51373456777777
cauca,19,silvia,19743,1894.3333333333333,2.6604629633333334,-76.34700926000001
cauca,19,sotara,19760,2443.3333333333335,2.23823148,-76.60382407333333
cauca,19,suarez,19780,1171.0,2.94333333,-76.70694444
cauca,19,timbio,19807,1820.0,2.33458333,-76.62011111
cauca,19,timbiqui,19809,33.333333333333336,2.81138889,-77.58381481666667
cauca,19,toribio,19821,1782.0,2.99284722,-76.247777775
cauca,19,totoro,19824,1867.3333333333333,2.50535648,-76.35702315166667
cauca,19,villa_rica,19845,988.0,3.17894444,-76.463
cesar,20,aguachica,20011,166.7,8.207663890000001,-73.62262499900001
cesar,20,agustin_codazzi,20013,280.84615384615387,9.918023503076922,-73.28076068384615
cesar,20,astrea,20032,43.333333333333336,9.540490740000001,-73.88126851666667
cesar,20,becerrill,,118.66666666666667,9.763074073333334,-73.26781481333335
cesar,20,bosconia,20060,101.875,9.962489583750001,-73.8636597225
cesar,20,chimichagua,20175,71.6,9.238166666000001,-73.78737778
cesar,20,chiriguana,20178,75.0,9.365354167500001,-73.5414236125
cesar,20,curumani,20228,222.66666666666666,9.20411574,-73.53890740666667
cesar,20,el_copey,20238,110.75,10.20361111,-74.017395835
cesar,20,el_paso,20250,52.857142857142854,9.653670635714287,-73.67294047428571
cesar,20,gamarra,20295,861.4,8.267929444,-73.75321666800001
cesar,20,la_gloria,20383,166.0,8.53191667,-73.64147222
cesar,20,la_jagua_de_ibirico,20400,170.0,9.56216667,-73.33947222
cesar,20,la_paz,20621,505.0,10.35,-73.11111111
cesar,20,manaure_balcon_del_cesar,20443,1918.0,10.36533333,-72.99763889
cesar,20,pailitas,20517,174.75,8.9802916675,-73.6141180525
cesar,20,pelaya,20550,40.0,8.71275,-73.70255556
cesar,20,pueblo_bello,20570,640.0,10.514986115,-73.585236115
cesar,20,rio_de_oro,20614,750.75,8.203506945,-73.4661527775
cesar,20,san_alberto,20710,229.0,7.765688888,-73.43601111000001
cesar,20,san_diego,20750,164.0,10.128027778333333,-73.27658333166666
cesar,20,san_martin,20770,271.0,7.99555556,-73.43972222
cesar,20,tamalameque,20787,26.5,8.86352778,-73.81605555499999
cesar,20,valledupar,20001,270.24242424242425,10.34337457939394,-73.4132836690909
choco,27,acandi,27006,2.0,8.532083329999999,-77.280138885
choco,27,alto_baudo,27025,40.0,5.52108333,-76.97316667
choco,27,bagado,27073,90.0,5.412,-76.41788889
choco,27,bahia_solano,27075,9.0,6.399509259999999,-77.44274074
choco,27,bojaya,27099,35.0,6.672930555,-76.97802777499999
choco,27,carmen_del_darien,27150,25.0,7.08333333,-76.91666667
choco,27,certegui,27160,77.0,5.37475,-76.61325
choco,27,condoto,27205,61.0,5.084175926666667,-76.67877778
choco,27,el_canton_del_san_pablo,27135,64.0,5.33416667,-76.72813889
choco,27,el_carmen,,1579.4444444444443,5.808907407777777,-76.21397839555556
choco,27,el_litoral_del_san_juan,27250,14.5,4.226555555,-77.079958335
choco,27,istmina,27361,38.75,4.90147917,-76.8310625
choco,27,jurado,27372,200.0,7.05,-77.65
choco,27,lloro,27413,76.0,5.50325926,-76.54372222
choco,27,medio_atrato,27425,62.5,6.105416665,-76.8685
choco,27,medio_baudo(boca_de_pepe),,31.0,5.18988889,-76.95422222
choco,27,medio_san_juan,27450,39.5,4.8976597225,-76.83054861000001
choco,27,novita,27491,81.0,4.94886111,-76.59047222
choco,27,nuqui,27495,26.666666666666668,5.587930556666667,-77.49169629666666
choco,27,quibdo,27001,33.833333333333336,5.912865741666667,-76.65061574166667
choco,27,rio_quito,27600,44.0,5.55388889,-76.745291665
choco,27,riosucio,27615,23.166666666666668,7.450472223333333,-77.20502315
choco,27,san_jose_del_palmar,27660,1149.5,4.8690972200000004,-76.248888885
choco,27,sipi,27745,110.0,4.66666667,-76.65
choco,27,tado,27787,93.0,5.267611110000001,-76.557293055
choco,27,unguia,27800,8.0,8.193590279999999,-77.067694445
cordoba,23,ayapel,23068,23.333333333333332,8.322512963333333,-75.04624907666667
cordoba,23,buenavista,23079,37.0,8.06805556,-75.36138889
cordoba,23,canalete,23090,37.5,8.78695833,-76.235986115
cordoba,23,cerete,23162,19.5,8.895069445,-75.772180555
cordoba,23,chima,23168,26.666666666666668,9.15025,-75.61847222333334
cordoba,23,chinu,23182,125.0,9.11777778,-75.39333333
cordoba,23,cienaga_de_oro,23189,14.0,8.925,-75.70833333499999
cordoba,23,cotorra,23300,20.0,9.041666665000001,-75.775
cordoba,23,la_apartada,23350,50.0,8.05305556,-75.33861111
cordoba,23,lorica,23417,28.25,9.26777824,-75.85318124833333
cordoba,23,montelibano,23466,86.5,8.037756945,-75.5650277775
cordoba,23,monteria,23001,39.411764705882355,8.656799345882353,-75.91952018029413
cordoba,23,planeta_rica,23555,99.0,8.340244446,-75.57186666800001
cordoba,23,pueblo_nuevo,23570,62.5,8.45486111,-75.43763888999999
cordoba,23,puerto_escondido,23574,15.0,9.07111111,-76.22444444
cordoba,23,puerto_libertador,23580,61.666666666666664,7.91675926,-75.67898148
cordoba,23,sahagun,23660,125.0,8.74086111,-75.49883333
cordoba,23,san_andres_de_sotavento,23670,71.875,9.201631944999999,-75.5186805575
cordoba,23,san_antero,23672,20.5,9.35111111,-75.79277778
cordoba,23,san_bernardo_del_viento,23675,9.666666666666666,9.30648148,-75.97361111
cordoba,23,san_carlos,23678,51.857142857142854,8.755515872857144,-75.70697619142857
cordoba,23,san_jose_de_ure,23682,200.0,7.78805556,-75.53833333
cordoba,23,san_pelayo,23686,16.333333333333332,9.016666663333334,-75.83698148
cordoba,23,tierralta,23807,176.46428571428572,7.921756348928571,-76.21756121071428
cordoba,23,valencia,23855,82.5,8.290555555000001,-76.1547916675
cundinamarca,25,anapoima,25035,810.0,4.58188889,-74.52661111
cundinamarca,25,anolaima,25040,1882.5,4.788194445,-74.440555555
cundinamarca,25,bojaca,25099,2610.0,4.69636111,-74.33366667
cundinamarca,25,cabrera,25120,1601.0,3.96445238,-74.45262698428571
cundinamarca,25,caparrapi,25148,1235.0,5.418638885,-74.478597225
cundinamarca,25,caqueza,25151,1696.5,4.4004930575,-73.926944445
cundinamarca,25,carmen_de_carupa,25154,3035.6666666666665,5.34262963,-73.88428703666666
cundinamarca,25,chaguani,25168,1200.0,4.98538889,-74.58111111
cundinamarca,25,chia,25175,2550.0,4.88594444,-74.05433333
cundinamarca,25,choachi,25181,2780.0,4.55791667,-73.96313889
cundinamarca,25,choconta,25183,2776.3333333333335,5.084953703333333,-73.71087037
cundinamarca,25,cota,25214,2570.0,4.83333333,-74.1
cundinamarca,25,cucunuba,25224,3.0,5.25,-73.77
cundinamarca,25,el_colegio,25245,1600.0,4.57316667,-74.40483333
cundinamarca,25,el_penon,25258,1400.0,5.25344444,-74.2945
cundinamarca,25,facatativa,25269,2671.6666666666665,4.833444443333334,-74.34668518666666
cundinamarca,25,fomeque,25279,1900.0,4.48652778,-73.89041667
cundinamarca,25,funza,25286,2560.0,4.74287963,-74.17638889
cundinamarca,25,fuquene,25288,2580.0,5.46727778,-73.73480556
cundinamarca,25,fusagasuga,25290,1900.0,4.38797222,-74.32991667
cundinamarca,25,gachala,25293,1206.5714285714287,4.696793652857143,-73.49076587428571
cundinamarca,25,gachancipa,25295,2750.0,4.98288889,-73.86466667
cundinamarca,25,gacheta,25297,1918.0,4.8332222225,-73.629666665
cundinamarca,25,gama,25299,2175.0,4.765472225,-73.61329167
cundinamarca,25,girardot,25307,283.0,4.29433333,-74.81238889
cundinamarca,25,guacheta,25317,2690.0,5.38588889,-73.69105556
cundinamarca,25,guaduas,25320,289.0,5.199092593333333,-74.67660185333334
cundinamarca,25,guasca,25322,3070.2,4.8156188900000005,-73.843244444
cundinamarca,25,guatavita,25326,2848.3333333333335,4.872,-73.76504629666665
cundinamarca,25,guayabal_de_siquima,25328,2200.0,4.84216667,-74.46169444
cundinamarca,25,guayabetal,25335,985.0,4.21783287,-73.81029629833334
cundinamarca,25,gutierrez,25339,2248.3333333333335,4.179083333333334,-74.03423148
cundinamarca,25,jerusalen,25368,297.0,4.56180556,-74.70238889
cundinamarca,25,junin,25372,2316.5,4.7393333325,-73.67065277750001
cundinamarca,25,la_calera,25377,3030.6666666666665,4.663611110000001,-73.84378703666665
cundinamarca,25,la_palma,25394,1201.0,5.30325,-74.367402775
cundinamarca,25,la_vega,25402,1877.5,4.934208335,-74.33702778
cundinamarca,25,lenguazaque,25407,2620.0,5.31572222,-73.70473611
cundinamarca,25,macheta,25426,1948.3333333333333,5.08059259,-73.58758333666667
cundinamarca,25,madrid,25430,2557.0,4.769794446000001,-74.250066666
cundinamarca,25,manta,25436,2030.0,4.993462963333333,-73.44502777666666
cundinamarca,25,medina,25438,648.0,4.38097222,-73.47125
cundinamarca,25,mosquera,25473,2544.75,4.7040416675,-74.2211666675
cundinamarca,25,narino,25483,283.0,4.393194445000001,-74.83196527999999
cundinamarca,25,nemocon,25486,2572.0,5.0905,-73.88125
cundinamarca,25,nilo,25488,461.0,4.31127778,-74.616
cundinamarca,25,nimaima,25489,620.0,5.12530556,-74.44705556
cundinamarca,25,nocaima,25491,1500.0,5.06463889,-74.38202778
cundinamarca,25,pacho,25513,63.333333333333336,5.169407406666667,-74.19089814666667
cundinamarca,25,paime,25518,138.0,5.37138889,-74.15463889
cundinamarca,25,pandi,25524,812.5,4.188027775,-74.49370833500001
cundinamarca,25,paratebueno,25530,276.25,4.376631945,-73.28179167
cundinamarca,25,pasca,25535,2248.0,4.3300555549999995,-74.355875
cundinamarca,25,puerto_salgar,25572,614.75,5.5484479175,-74.63050347125
cundinamarca,25,puli,25580,398.0,4.64638889,-74.65944444
cundinamarca,25,quebradanegra,25592,1107.0,5.13761111,-74.48125
cundinamarca,25,quetame,25594,1240.0,4.31430556,-73.87494444
cundinamarca,25,san_bernardo,25649,2700.0,4.15247222,-74.35975
cundinamarca,25,san_cayetano,25653,2503.5,5.316666665,-74.04166667000001
cundinamarca,25,san_juan_de_rioseco,25662,1906.5,4.87840278,-74.680875
cundinamarca,25,sasaima,25718,1425.0,4.97316667,-74.41205556
cundinamarca,25,sesquile,25736,2567.0,5.03388889,-73.84819444
cundinamarca,25,sibate,25740,2685.0,4.4727847225,-74.0298402775
cundinamarca,25,silvania,25743,1245.0,4.409770835,-74.3984027775
cundinamarca,25,simijaca,25745,2584.0,5.559324076666667,-73.83789814666666
cundinamarca,25,soacha,25754,2900.0,4.50575,-74.18927778
cundinamarca,25,sopo,25758,2585.0,4.8800625,-73.95763889
cundinamarca,25,subachoque,25769,2650.0,4.927944445,-74.167125
cundinamarca,25,suesca,25772,2623.25,5.126694445,-73.7840416675
cundinamarca,25,susa,25779,2600.0,5.46244444,-73.80155556
cundinamarca,25,tabio,25785,2587.5,4.91579167,-74.08522222
cundinamarca,25,tausa,25793,1551.5,5.19940278,-73.92418055499999
cundinamarca,25,tenjo,25799,2565.0,4.824006945,-74.16866666749999
cundinamarca,25,tibacuy,25805,1592.5,4.34902778,-74.45223611
cundinamarca,25,tibirita,25807,1769.0,5.04972222,-73.52697222
cundinamarca,25,tocaima,25815,361.0,4.45486111,-74.60852778
cundinamarca,25,tocancipa,25817,2497.0,4.98333333,-73.93333333
cundinamarca,25,ubala,25839,1764.5833333333333,4.794259259166666,-73.46171990583333
cundinamarca,25,ubaque,25841,2980.0,4.48283333,-74.03027778
cundinamarca,25,ubate,,2582.5,5.3155694449999995,-73.82159722
cundinamarca,25,une,25845,220.0,4.42863889,-74.01019444
cundinamarca,25,utica,25851,497.0,5.19608333,-74.4855
cundinamarca,25,venecia,25506,1450.0,4.08161111,-74.48872222
cundinamarca,25,villagomez,25871,1575.0,5.27175,-74.19677778
cundinamarca,25,villapinzon,25873,2522.5,5.249902779999999,-73.55797222000001
cundinamarca,25,villeta,25875,523.0,5.022527775,-74.487444445
cundinamarca,25,viota,25878,567.0,4.44269444,-74.54225
cundinamarca,25,yacopi,25885,1381.5,5.492083335,-74.360625
cundinamarca,25,zipaquira,25899,3005.6666666666665,5.039638886666666,-74.01891666666667
guainia,94,barranco_mina,,96.75,3.6907013875,-69.10096528
guainia,94,inirida,94001,100.0,3.8710416700000003,-67.925375
guainia,94,mapiripana,,113.0,3.05,-70.225
guaviare,95,el_retorno,95025,150.0,2.37277778,-72.64
guaviare,95,san_jose_del_guaviare,95001,194.0,2.582512626363636,-72.53788888727273
huila,41,acevedo,41006,2225.0,1.58333333,-76.0
huila,41,agrado,41013,988.7142857142857,2.2590952385714287,-75.70438095285715
huila,41,aipe,41016,480.6666666666667,3.2302314833333337,-75.27273147999999
huila,41,algeciras,41020,1332.857142857143,2.542134921428571,-75.29759920714287
huila,41,altamira,41026,1368.0,2.07916667,-75.73622222
huila,41,baraya,41078,851.625,3.1720208325,-75.02600347250001
huila,41,campoalegre,41132,585.7272727272727,2.669073231818182,-75.35527272727273
huila,41,colombia,41206,1188.75,3.5525657625,-74.77978472125
huila,41,garzon,41298,1107.0,2.1850611100000004,-75.608549998
huila,41,gigante,41306,1090.75,2.356895835,-75.5540833325
huila,41,hobo,41349,636.0,2.57480556,-75.43552778
huila,41,iquira,41357,778.75,2.6971736125,-75.63560416749999
huila,41,la_argentina,41378,1500.0,2.19905556,-75.97227778
huila,41,la_plata,41396,1603.75,2.2946874999999998,-76.00995139
huila,41,nataga,41483,1747.5,2.601916665,-75.78272222
huila,41,neiva,41001,1005.6111111111111,2.9308317894444444,-75.2378070988889
huila,41,paicol,41518,786.0,2.46666667,-75.83333333
huila,41,palermo,41524,635.1304347826087,2.856884057826087,-75.39187077304348
huila,41,palestina,41530,1645.0,1.68555539,-76.13103161000001
huila,41,pital,41548,805.0,2.19936111,-75.77936111
huila,41,pitalito,41551,1400.0,2.0349722199999998,-76.08566666499999
huila,41,rivera,41615,925.0,2.7893055566666667,-75.18605555666666
huila,41,saladoblanco,41660,1919.0,2.02158333,-76.11433333
huila,41,san_agustin,41668,1240.75,1.9545,-76.34270139
huila,41,santa_maria,41676,1187.75,2.949805555,-75.5723055575
huila,41,tarqui,41791,1015.0,2.11275,-75.844736115
huila,41,tello,41799,509.8333333333333,3.057675925,-75.185083335
huila,41,teruel,41801,1322.857142857143,2.761460318571429,-75.59015079428572
huila,41,tesalia,41797,905.0,2.4951296299999997,-75.68694444666666
huila,41,villavieja,41872,422.22222222222223,3.3034305550000003,-75.16731327222222
huila,41,yaguara,41885,589.125,2.63107639,-75.53032291625
la_guajira,44,albania,44035,126.45454545454545,11.157793181818182,-72.55195479636365
la_guajira,44,barrancas,44078,234.72222222222223,11.01588734611111,-72.70045679055555
la_guajira,44,dibulla,44090,159.14285714285714,11.170714287142857,-73.39355555571429
la_guajira,44,distraccion,44098,322.5,10.901499999999999,-72.990652775
la_guajira,44,fonseca,44279,281.25,10.87314236,-72.88086110875
la_guajira,44,hato_nuevo,,266.8333333333333,11.105657408333334,-72.70501851666667
la_guajira,44,la_jagua_del_pilar,44420,100.0,10.45,-73.15
la_guajira,44,maicao,44430,116.76923076923077,11.334275640769231,-72.34165170923077
la_guajira,44,manaure,44560,21.5,11.6557361125,-72.6214097225
la_guajira,44,riohacha,44001,47.285714285714285,11.35472619047619,-72.91553042380953
la_guajira,44,san_juan_del_cesar,44650,452.375,10.87754514,-73.0311041675
la_guajira,44,uribia,44847,58.53125,12.0894183171875,-71.69833836812501
la_guajira,44,urumita,44855,255.0,10.56638889,-73.01638889
la_guajira,44,villanueva,44874,206.66666666666666,10.53861111,-73.07175926000001
magdalena,47,algarrobo,47030,122.5,10.25402778,-74.04461111
magdalena,47,aracataca,47053,47.8,10.56027778,-74.167816666
magdalena,47,ariguani,47058,115.0,9.844321428571428,-74.04249206428571
magdalena,47,cienaga,47189,406.6363636363636,10.867949495454546,-74.12421969545454
magdalena,47,el_banco,47245,28.1,9.054094445999999,-74.011127777
magdalena,47,el_pinon,47258,41.0,10.34441667,-74.73211111
magdalena,47,el_reten,47268,32.75,10.59970139,-74.2486875
magdalena,47,fundacion,47288,368.6,10.448366666,-74.04879889
magdalena,47,nueva_granada,47460,95.0,9.742763889999999,-74.355361115
magdalena,47,pivijai,,50.0,10.393826390000001,-74.42763889
magdalena,47,plato,47555,53.5,9.79065278,-74.681104165
magdalena,47,puebloviejo,47570,13.5,10.84936111,-74.316833335
magdalena,47,remolino,47605,10.0,10.59061111,-74.647
magdalena,47,salamina,47675,15.0,10.48752778,-74.79
magdalena,47,san_sebastian_de_buenavista,47692,46.666666666666664,9.407203706666666,-74.31725
magdalena,47,san_zenon,47703,25.0,9.2475,-74.50194444
magdalena,47,santa_ana,47707,62.666666666666664,9.53472315,-74.29531573999999
magdalena,47,santa_barbara_de_pinto,47720,39.0,9.477819445,-74.696722225
magdalena,47,santa_marta,47001,345.030303030303,11.207171633333333,-73.98840513454546
magdalena,47,sitionuevo,47745,4.0,11.00597222,-74.68363889
magdalena,47,tenerife,47798,13.0,9.90347222,-74.86408333
magdalena,47,zona_bananera,47980,28.466666666666665,10.825864814666666,-74.16520740666667
meta,50,acacias,50006,863.6666666666666,4.102194446666666,-73.77815740666666
meta,50,barranca_de_upia,50110,213.5,4.5269402775,-72.96669236
meta,50,cabuyaro,50124,199.33333333333334,4.3375648133333335,-72.87503703666665
meta,50,castilla_la_nueva,50150,297.2,3.8167277779999997,-73.5149
meta,50,cubarral,50223,600.0,3.79072222,-73.84277778
meta,50,cumaral,50226,347.0,4.30644722,-73.38494028
meta,50,el_calvario,50245,2315.0,4.2974722199999995,-73.698180555
meta,50,el_castillo,50251,600.0,3.53094444,-73.90108333
meta,50,el_dorado,50270,800.0,3.74233333,-73.83469444
meta,50,fuente_de_oro,50287,278.3333333333333,3.4000000033333335,-73.61111111000001
meta,50,granada,50313,351.375,3.4610034725,-73.7662826375
meta,50,guamal,50318,662.5,3.9012777749999996,-73.78659722
meta,50,la_macarena,50350,281.6666666666667,2.349060185,-73.88789351833333
meta,50,lejanias,50400,760.0,3.554777775,-74.03815278
meta,50,mapiripan,50325,226.5,3.0448611100000003,-72.40672222
meta,50,mesetas,50330,620.0,3.38005556,-74.04297222
meta,50,puerto_concordia,50450,235.0,2.83333333,-72.80933333
meta,50,puerto_gaitan,50568,149.2,4.55613889,-71.612127778
meta,50,puerto_lleras,50577,242.8,3.204372222,-73.29325
meta,50,puerto_lopez,50573,189.69230769230768,4.014956624615385,-72.82667478461539
meta,50,puerto_rico,50590,220.0,2.9,-72.9
meta,50,restrepo,50606,677.25,4.245079165,-73.5770562475
meta,50,san_carlos_de_guaroa,50680,268.3333333333333,3.855555556666667,-73.33
meta,50,san_juan_de_arama,50683,486.6666666666667,3.3475347233333337,-73.94219444333334
meta,50,san_martin,50689,329.75,3.71155208375,-73.2887083325
meta,50,uribe,50370,666.5,2.903027775,-74.228402775
meta,50,villavicencio,50001,411.1904761904762,4.1147712952380955,-73.57703545047619
meta,50,vistahermosa,50711,292.5,3.160194445,-73.75201389
narino,52,aldana,52022,2961.0,0.85708333,-77.67775
narino,52,barbacoas,52079,234.0,1.4474814799999998,-78.11733333333333
narino,52,chachagui,52240,1796.0,1.39408333,-77.29086111
narino,52,colon,52203,1755.0,1.6619930575,-77.00742361
narino,52,contadero,52210,2450.0,0.93030556,-77.49119444
narino,52,cuaspud,52224,2920.0,0.84416667,-77.68588889
narino,52,cumbal,52227,1771.0,0.829125,-77.884777775
narino,52,cumbitara,52233,356.6666666666667,1.6721851866666668,-77.50519444666666
narino,52,el_charco,52250,50.0,2.44188889,-78.09133333
narino,52,el_rosario,52256,600.0,1.63333333,-77.45
narino,52,gualmatan,52323,2830.0,0.90666667,-77.58138889
narino,52,ipiales,52356,2582.0,0.81378611,-77.66197778
narino,52,la_cruz,52378,2248.0,1.59527778,-76.83416667
narino,52,la_union,52399,1745.0,1.58305556,-77.13266667
narino,52,los_andes,52418,480.0,1.57438889,-77.44197222
narino,52,magui,52427,80.0,2.07927778,-78.11286111
narino,52,mallama,52435,1830.0,1.14152778,-77.92897222
narino,52,mosquera,52473,10.0,2.50508333,-78.45452778
narino,52,pasto,52001,2557.8,1.092672222,-77.22525
narino,52,policarpa,52540,475.0,1.59436111,-77.429402775
narino,52,potosi,52560,1388.0,0.8164583350000001,-77.55926389
narino,52,puerres,52573,2457.0,0.83601389,-77.375569445
narino,52,ricaurte,52612,1210.0,1.21533333,-77.99691667
narino,52,roberto_payan,52621,40.0,2.19036111,-78.41638889
narino,52,taminango,52786,1080.0,1.5687361100000001,-77.32516666500001
narino,52,tumaco,,8.2,1.6454222219999999,-78.698533334
narino,52,tuquerres,52838,3120.0,1.07061111,-77.63688889
norte_de_santander,54,abrego,54003,1515.7407407407406,8.053404321111111,-73.19966769629629
norte_de_santander,54,arboledas,54051,1337.5,7.614027775,-72.86361111
norte_de_santander,54,bochalema,54099,770.0,7.69861111,-72.60069444499999
norte_de_santander,54,cachira,54128,935.6666666666666,7.717592593333333,-73.10518518666667
norte_de_santander,54,cacota,54125,2645.0,7.27,-72.64361111
norte_de_santander,54,chinacota,54172,1040.0,7.650375,-72.59815277499999
norte_de_santander,54,chitaga,54174,2865.0,7.076666664999999,-72.672777775
norte_de_santander,54,convencion,54206,1215.0,8.605166664999999,-73.33390278
norte_de_santander,54,cucutilla,54223,1325.0,7.530340277500001,-72.7693125025
norte_de_santander,54,durania,54239,255.0,7.833333329999999,-72.63333333
norte_de_santander,54,el_carmen,54245,1500.0,8.71666667,-73.46666667
norte_de_santander,54,el_tarra,54250,92.5,8.77611111,-72.96597222
norte_de_santander,54,el_zulia,54261,154.0,8.066666666,-72.59
norte_de_santander,54,gramalote,54313,120.0,7.89194444,-72.79944444
norte_de_santander,54,herran,54347,1902.5,7.44714583,-72.454916665
norte_de_santander,54,la_esperanza,54385,185.5,7.64777778,-73.447083335
norte_de_santander,54,la_playa,54398,1506.6666666666667,8.233055553333333,-73.22703703666667
norte_de_santander,54,labateca,54377,1335.5,7.262972225,-72.47323611499999
norte_de_santander,54,lourdes,54418,1200.0,7.95027778,-72.8325
norte_de_santander,54,mutiscua,54480,2762.5,7.3084722200000005,-72.734166665
norte_de_santander,54,ocana,54498,1368.5714285714287,8.255904762857144,-73.36141666714286
norte_de_santander,54,pamplona,54518,2351.0,7.367027775,-72.65552778
norte_de_santander,54,pamplonita,54520,1107.0,7.51736111,-72.64408333
norte_de_santander,54,puerto_santander,54553,50.0,8.35944444,-72.41
norte_de_santander,54,ragonvalia,54599,1690.0,7.57101852,-72.51703703666668
norte_de_santander,54,salazar,54660,860.0,7.778749996666666,-72.81712963
norte_de_santander,54,san_calixto,54670,1650.0,8.40777778,-73.21361111
norte_de_santander,54,san_cayetano,54673,260.25,7.905069445,-72.6234722225
norte_de_santander,54,san_jose_de_cucuta,54001,180.56363636363636,8.110481313090908,-72.50272676745455
norte_de_santander,54,santiago,54680,411.0,7.86416667,-72.71611111
norte_de_santander,54,sardinata,54720,282.57142857142856,8.255928571428571,-72.83880952428572
norte_de_santander,54,silos,54743,2852.0,7.211666664999999,-72.7465277775
norte_de_santander,54,teorama,54800,710.0,8.463958332499999,-73.27875
norte_de_santander,54,tibu,54810,74.75,8.577842593333333,-72.7110833325
norte_de_santander,54,toledo,54820,852.8571428571429,7.079801588571429,-72.33484126857142
norte_de_santander,54,villa_caro,54871,1865.0,7.97,-72.999305555
norte_de_santander,54,villa_del_rosario,54874,490.6666666666667,7.787333333333334,-72.48392592666666
putumayo,86,mocoa,86001,1174.3333333333333,1.1261481466666667,-76.73926851833333
putumayo,86,puerto_asis,86568,238.42857142857142,0.47281349142857143,-76.46971825428571
putumayo,86,puerto_caicedo,86569,300.0,0.68591667,-76.60516667
putumayo,86,puerto_leguizamo,86573,165.69230769230768,-0.08956196538461537,-74.98946794846154
putumayo,86,san_francisco,86755,2100.0,1.13405556,-76.93025
putumayo,86,san_miguel,86757,500.0,0.27927778,-76.92725
putumayo,86,santiago,86760,1340.0,1.1203148166666665,-77.00119444666666
putumayo,86,sibundoy,86749,2130.0,1.11666667,-76.95
putumayo,86,valle_del_guamuez,86865,500.0,0.480152775,-76.958194445
putumayo,86,villagarzon,86885,344.0,0.8425740733333335,-76.57213889
quindio,63,armenia,63001,1357.0,4.493152775,-75.728541665
quindio,63,calarca,63130,2255.0,4.52830556,-75.59638889
quindio,63,genova,63302,1524.0,4.21666667,-75.76666667
quindio,63,pijao,63548,1159.0,4.334703703333333,-75.73376852
quindio,63,salento,63690,26.0,4.63627778,-75.56916667
risaralda,66,apia,66045,1115.0,5.05244444,-75.94741667
risaralda,66,belen_de_umbria,66088,1678.5,5.18726389,-75.88286111
risaralda,66,dosquebradas,66170,1400.0,4.85,-75.68333333
risaralda,66,guatica,66318,1627.25,5.28602778,-75.81867360999999
risaralda,66,la_virginia,66400,923.5,4.9004166675,-75.88303472
risaralda,66,marsella,66440,1549.2,4.9383999979999995,-75.742677778
risaralda,66,mistrato,66456,1483.0,5.29425,-75.87272222
risaralda,66,pereira,66001,1434.5238095238096,4.7801313500000004,-75.69587526476191
risaralda,66,pueblo_rico,66572,764.5,5.202500000000001,-76.00552778
risaralda,66,quinchia,66594,791.0,5.273861115000001,-75.665819445
risaralda,66,santa_rosa_de_cabal,66682,2403.8333333333335,4.803299767916667,-75.55577777791667
risaralda,66,santuario,66687,2775.0,5.10161111,-76.01402778
santander,68,albania,68020,1807.5,5.77083333,-73.91499999999999
santander,68,aratoca,68051,2860.0,6.8,-73.05
santander,68,barichara,68079,850.0,6.680555555,-73.23472222500001
santander,68,barrancabermeja,68081,97.84615384615384,7.04392735,-73.83595085538462
santander,68,betulia,68092,192.0,7.03888889,-73.34083333
santander,68,bolivar,68101,851.6666666666666,6.078703703333333,-73.99583333333334
santander,68,bucaramanga,68001,727.2857142857143,7.124086904285714,-73.12412698285713
santander,68,cabrera,68121,612.5,6.553055555,-73.27972222
santander,68,california,68132,3100.0,7.31666667,-72.86666667
santander,68,capitanejo,68147,1204.25,6.516815902499999,-72.68968271
santander,68,carcasi,68152,224.0,6.6275,-72.63
santander,68,cepita,68160,607.5,6.75152778,-72.979166665
santander,68,cerrito,68162,2894.75,6.8669027775,-72.6947083325
santander,68,charala,68167,1332.5,6.2768750025,-73.1444444475
santander,68,charta,68169,150.0,7.21666667,-73.05
santander,68,chima,68176,526.6666666666666,6.35888889,-73.36777777666667
santander,68,cimitarra,68190,146.58333333333334,6.431875000000001,-74.11900694416667
santander,68,concepcion,68207,3168.0,6.81027778,-72.55611111
santander,68,confines,68209,1523.0,6.35527778,-73.23972222
santander,68,coromoro,68217,2084.0,6.233648146666667,-72.98534259
santander,68,curiti,68229,1587.0,6.604972223333333,-73.06314815
santander,68,el_carmen,,494.0,6.734166665,-73.563194445
santander,68,el_guacamayo,68245,1800.0,6.32361111,-73.46722222
santander,68,el_playon,68255,500.0,7.46472222,-73.20138889
santander,68,encino,68264,1814.0,6.13833333,-73.09805556
santander,68,floridablanca,68276,1013.1666666666666,7.081125,-73.06996759333333
santander,68,gambita,68298,2026.2,5.904838334,-73.364237222
santander,68,giron,68307,618.0,7.040479799090909,-73.24972222272727
santander,68,guaca,68318,3050.3333333333335,6.9563888899999995,-72.82814814666666
santander,68,guadalupe,68320,1400.0,6.23716667,-73.41538889
santander,68,guavata,68324,218.0,5.96138889,-73.7025
santander,68,jesus_maria,68368,2255.0,5.872083330000001,-73.8475
santander,68,landazuri,68385,935.0,6.22138889,-73.80888889
santander,68,lebrija,68406,701.6666666666666,7.225289350833333,-73.27905092583333
santander,68,los_santos,68418,1460.0,6.75916667,-73.09277778
santander,68,macaravita,68425,1856.0,6.49394444,-72.58136111
santander,68,malaga,68432,2198.5,6.703194445,-72.73152777499999
santander,68,matanza,68444,1378.6666666666667,7.315555556666666,-73.04379629333333
santander,68,mogotes,68464,1679.75,6.4847916675,-72.9786111125
santander,68,molagavita,68468,2150.0,6.67166667,-72.81138889
santander,68,ocamonte,68498,1400.0,6.35,-73.11666667
santander,68,oiba,68500,1400.0,6.25625,-73.31833333
santander,68,onzaga,68502,1560.0,6.272833333333334,-72.81107407
santander,68,palmar,68522,940.0,6.54986111,-73.287666665
santander,68,paramo,68533,1277.0,6.430694445,-73.1625
santander,68,piedecuesta,68547,156.4,6.972388886,-73.038888888
santander,68,pinchote,68549,975.0,6.53222222,-73.19916667
santander,68,puerto_parra,68573,117.33333333333333,6.698333333333333,-74.07555555666666
santander,68,puerto_wilches,68575,82.05263157894737,7.5781637421052634,-73.82523976736842
santander,68,rionegro,68615,503.125,7.442734375,-73.3964114575
santander,68,sabana_de_torres,68655,110.28571428571429,7.476726190714286,-73.53439484142858
santander,68,san_andres,68669,1702.0,6.83,-72.84416667
santander,68,san_gil,68679,1222.0,6.541111113333333,-73.11696296666666
santander,68,san_joaquin,68682,20.0,6.42641667,-72.87383333
santander,68,san_vicente_de_chucuri,68689,315.0,6.933819445,-73.5089166675
santander,68,santa_barbara,68705,250.0,6.93972222,-72.93166667
santander,68,simacota,68745,126.66666666666667,6.61685185,-73.68962963
santander,68,socorro,68755,1115.3333333333333,6.451342593333333,-73.27406481333334
santander,68,suaita,68770,918.4,6.113411112,-73.419944444
santander,68,sucre,68773,2270.0,5.91972222,-73.79638889
santander,68,surata,68780,1754.4,7.406166666,-72.993722222
santander,68,tona,68820,2399.375,7.160493055,-72.95252083375
santander,68,valle_de_san_jose,68855,1261.5,6.45986111,-73.10819444500001
santander,68,velez,68861,1177.5,6.106944445,-73.744722225
santander,68,vetas,68867,3220.0,7.30888889,-72.87833333
santander,68,zapatoca,68895,1475.0,6.766675926666667,-73.27087963
sucre,70,buenavista,70110,100.0,9.35944444,-74.94083333
sucre,70,caimito,70124,20.0,8.79083333,-75.12444444
sucre,70,chalan,70230,100.0,9.53861111,-75.3225
sucre,70,coloso,70204,130.0,9.501342593333334,-75.37406481333333
sucre,70,corozal,70215,122.0,9.27074074,-75.25222222333333
sucre,70,galeras,70235,47.5,9.172763889999999,-74.98270833000001
sucre,70,guaranda,70265,45.0,8.33277778,-74.73555556
sucre,70,los_palmitos,70418,183.33333333333334,9.42083333,-75.13943518666667
sucre,70,majagual,70429,44.2,8.586205554,-74.6623
sucre,70,morroa,70473,168.0,9.35708333,-75.28925
sucre,70,ovejas,70508,232.5,9.533333335,-75.17500000000001
sucre,70,sampues,70670,160.0,9.31638889,-75.3875
sucre,70,san_benito_abad,70678,33.75,9.050993055,-75.032708335
sucre,70,san_juan_de_betulia,70702,165.0,9.326944445,-75.24347222
sucre,70,san_marcos,70708,37.75,8.6185138875,-75.1682430525
sucre,70,san_onofre,70713,27.125,9.84709375125,-75.4777534725
sucre,70,since,,60.0,9.17713889,-75.02241667
sucre,70,sincelejo,70001,115.66666666666667,9.283537038333334,-75.43382407166666
sucre,70,sucre,70771,27.5,8.872430555,-74.7184027775
sucre,70,tolu,,7.666666666666667,9.462592593333333,-75.59009259333334
sucre,70,tolu_viejo,,59.75,9.4402083325,-75.4369027775
tolima,73,alpujarra,73024,1058.0,3.415777775,-74.86863889
tolima,73,alvarado,73026,439.0,4.56788889,-74.95130556
tolima,73,ambalema,73030,415.53846153846155,4.812395298461539,-74.81427136692308
tolima,73,anzoategui,73043,3224.5,4.6541388900000005,-75.20888889
tolima,73,armero,73055,749.1428571428571,4.999805555714286,-74.88737301714286
tolima,73,ataco,73067,900.1818181818181,3.44443182,-75.5457121209091
tolima,73,cajamarca,73124,1920.8,4.395416111,-75.496052221
tolima,73,carmen_de_apicala,73148,321.0,4.16102778,-74.71311111
tolima,73,chaparral,73168,546.2,3.730391667,-75.506216667
tolima,73,coyaima,73217,411.8333333333333,3.9193009266666667,-75.18306481666667
tolima,73,cunday,73226,479.1666666666667,3.9761898166666665,-74.71391203666667
tolima,73,dolores,73236,1556.0,3.6016481500000004,-74.81092592333333
tolima,73,espinal,73268,387.0,4.197266668,-74.95783333199999
tolima,73,flandes,73275,287.3333333333333,4.2807037,-74.80488889
tolima,73,fresno,73283,1670.0,5.15838889,-75.04891667
tolima,73,guamo,73319,321.25,4.0286944425,-74.9432222225
tolima,73,honda,73349,727.8,5.221555558,-74.75774
tolima,73,ibague,73001,1571.7941176470588,4.473766340294118,-75.26387728823529
tolima,73,icononzo,73352,750.0,4.19225,-74.50072222
tolima,73,lerida,73408,656.6,4.8412388889999995,-74.912613889
tolima,73,libano,73411,1624.5,4.9359444450000005,-75.07959722000001
tolima,73,mariquita,,948.8888888888889,5.219173146666666,-74.89455864222222
tolima,73,melgar,73449,575.6,4.2087833340000005,-74.62027222200001
tolima,73,murillo,73461,2281.3333333333335,4.875722223333333,-75.21449074
tolima,73,natagaima,73483,375.6,3.520833332,-75.116633334
tolima,73,ortega,73504,1166.2,3.9448,-75.237022224
tolima,73,piedras,73547,384.0,4.535225,-74.88053056
tolima,73,planadas,73555,1402.5,3.116712965,-75.69725000166666
tolima,73,prado,73563,372.1111111111111,3.7363611111111115,-74.87286419666667
tolima,73,purificacion,73585,338.42857142857144,3.867234127142857,-74.8885119042857
tolima,73,rioblanco,73616,1285.4,3.4700138879999995,-75.69394722199999
tolima,73,roncesvalles,73622,2728.75,4.0572986125,-75.59420833249999
tolima,73,rovira,73624,812.1111111111111,4.175098765555556,-75.28146913555555
tolima,73,saldana,73671,1387.1666666666667,3.9103842583333335,-75.048921295
tolima,73,san_antonio,73675,1474.0,3.9117916700000004,-75.48570833
tolima,73,san_luis,73678,589.6666666666666,4.1968580244444444,-75.10675308777779
tolima,73,santa_isabel,73686,2470.3846153846152,4.725581197692308,-75.21270812
tolima,73,suarez,73770,1518.0,4.039212963333333,-74.82098148
tolima,73,valle_de_san_juan,73854,624.0,4.2157465275,-75.1270763875
tolima,73,venadillo,73861,437.75,4.728194445,-74.9366319425
tolima,73,villahermosa,73870,1802.6,4.9522244440000005,-75.165561112
tolima,73,villarrica,73873,1041.75,3.8763819475,-74.639173615
valle_del_cauca,76,alcala,76020,1261.0,4.67647222,-75.78630556
valle_del_cauca,76,andalucia,76036,1314.0,4.08725,-76.10080556
valle_del_cauca,76,ansermanuevo,76041,1465.5,4.78470833,-76.06538889000001
valle_del_cauca,76,bolivar,76100,954.5,4.358743055,-76.2470972225
valle_del_cauca,76,buenaventura,76109,32.2,3.880773332,-77.115427592
valle_del_cauca,76,buga,,813.3333333333334,3.8810740750000003,-76.188524075
valle_del_cauca,76,bugalagrande,76113,912.0,4.18722917,-76.0698194475
valle_del_cauca,76,caicedonia,76122,137.5,4.37090278,-75.85511111
valle_del_cauca,76,cali,76001,1034.625,3.422586805,-76.557625
valle_del_cauca,76,candelaria,76130,413.8,3.376255554,-76.375255554
valle_del_cauca,76,cartago,76147,941.5,4.689097224999999,-75.94343055499999
valle_del_cauca,76,dagua,76233,1164.0,3.6470925933333334,-76.72759259333333
valle_del_cauca,76,el_aguila,76243,1341.0,4.97108333,-76.03852778
valle_del_cauca,76,el_cerrito,76248,2611.0,3.698787036666667,-76.13038889
valle_del_cauca,76,el_dovio,76250,1196.0,4.49572222,-76.35222222
valle_del_cauca,76,florida,76275,1008.0,3.333895835,-76.22280555500001
valle_del_cauca,76,ginebra,76306,1826.0,3.77322222,-76.16555556
valle_del_cauca,76,guacari,76318,990.0,3.77013889,-76.33194444
valle_del_cauca,76,jamundi,76364,570.8,3.2359055519999997,-76.592494448
valle_del_cauca,76,la_cumbre,76377,1161.75,3.6790069425,-76.570555555
valle_del_cauca,76,la_union,76400,923.5,4.563249998333333,-76.05929629666666
valle_del_cauca,76,la_victoria,76403,949.0,4.51563889,-76.04055556
valle_del_cauca,76,obando,76497,986.0,4.58861111,-75.96583333
valle_del_cauca,76,palmira,76520,911.4444444444445,3.556415124444444,-76.31264197444445
valle_del_cauca,76,pradera,76563,155.0,3.45972222,-76.25027778
valle_del_cauca,76,riofrio,76616,936.0,4.13333333,-76.26666667
valle_del_cauca,76,roldanillo,76622,924.5,4.446625002,-76.104708334
valle_del_cauca,76,san_pedro,76670,157.0,4.01522222,-76.15797222
valle_del_cauca,76,sevilla,76736,2279.0,4.12113889,-75.819055555
valle_del_cauca,76,toro,76823,933.8,4.620250002000001,-76.05403333199999
valle_del_cauca,76,tulua,76834,1149.1666666666667,4.052916665000001,-76.09334722333334
valle_del_cauca,76,versalles,76863,189.0,4.57283333,-76.20166667
valle_del_cauca,76,vijes,76869,974.0,3.69852778,-76.42972222
valle_del_cauca,76,yotoco,76890,962.0,3.89088889,-76.35083333
valle_del_cauca,76,zarzal,76895,775.5,4.3542986125,-76.0230555575
vaupes,97,mitu,97001,170.0,0.95888889,-69.92777777666667
vichada,99,cumaribo,99773,119.26666666666667,4.446248147333334,-69.20022963066667
vichada,99,la_primavera,99524,85.45454545454545,5.892747475454545,-69.7350580809091
vichada,99,puerto_carreno,99001,69.0,5.941931173333334,-67.99936419555556
vichada,99,santa_rosalia,99624,108.0,5.2831875,-70.726256945
